{
  "6": {
    "reference": "LMLweier",
    "name": "Limpertsberg, LML Restaurant Um Weier",
    "region": "Lycée Michel Lucius Université",
    "active": true,
    "latitude": 49.62393,
    "longitude": 6.11301,
    "street": "157 Avenue Pasteur",
    "zip": "L-2311",
    "city": "Limpertsberg (Luxembourg)",
    "phone": "+352 47 33 05 28",
    "services": [
      [
        59,
        "07:00 - 18:00"
      ]
    ],
    "days": "Mo-Fr",
    "openmensa": 949
  },
  "8": {
    "reference": "NOSLre",
    "name": "Diekirch, NOSL Restaurant",
    "region": "Nordstadlycée",
    "active": true,
    "latitude": 49.86372,
    "longitude": 6.163,
    "street": "1-7, rue Sauerwiss",
    "zip": "L-9278",
    "city": "Diekirch (Luxembourg)",
    "services": [
      [
        40,
        "07:00 - 18:00"
      ]
    ],
    "days": "Mo-Fr",
    "openmensa": 950
  },
  "9": {
    "reference": "NOSLca",
    "name": "Diekirch, NOSL Cafeteria",
    "region": "Nordstadlycée",
    "active": true,
    "latitude": 49.86423,
    "longitude": 6.161201,
    "street": "6, rue Joseph Merten",
    "zip": "L-9257",
    "city": "Diekirch (Luxembourg)",
    "services": [
      [
        82,
        "11:10 - 14:30"
      ]
    ],
    "days": "Mo-Fr",
    "openmensa": 951
  },
  "10": {
    "reference": "LAMSDre",
    "name": "Luxembourg, Dommeldange, LAM-SD - Restaurant",
    "region": "Lycée des Arts et Métiers",
    "active": true,
    "latitude": 49.63709,
    "longitude": 6.137401,
    "street": "20 Rue Nicolas Hein",
    "zip": "L-1721",
    "city": "Luxembourg",
    "services": [
      [
        54,
        "07:00 - 18:00"
      ]
    ],
    "days": "Mo-Fr",
    "openmensa": 952
  },
  "11": {
    "reference": "LAMSDca",
    "name": "Luxembourg, Dommeldange, LAM-SD - Cafeteria",
    "region": "Lycée des Arts et Métiers",
    "active": true,
    "latitude": 49.63709,
    "longitude": 6.138,
    "street": "20 Rue Nicolas Hein",
    "zip": "L-1721",
    "city": "Luxembourg",
    "phone": "+352 2668911",
    "services": [
      [
        83,
        "07:00 - 15:00"
      ]
    ],
    "days": "Mo-Fr",
    "openmensa": 953
  },
  "12": {
    "reference": "LMLPisc",
    "name": "Luxembourg, LML - Piscine",
    "region": "Lycée Michel Lucius Université",
    "active": false,
    "latitude": 49.6244,
    "longitude": 6.11194,
    "street": "157 Avenue Pasteur",
    "zip": "L-2311",
    "city": "Luxembourg",
    "phone": "+352 47 33 05 28",
    "services": [
      [
        84,
        "11:10 - 15:30"
      ]
    ]
  },
  "13": {
    "reference": "LJBMre",
    "name": "Bertrange, LJBM - Restaurant",
    "region": "Lycée Josy Barthel Mamer",
    "active": true,
    "latitude": 49.621028,
    "longitude": 6.035486,
    "street": "2 Rue Gaston Thorn",
    "zip": "L-8268",
    "city": "Bertrange (Luxembourg)",
    "services": [
      [
        85,
        "07:00 - 18:00"
      ]
    ],
    "days": "Mo-Fr",
    "openmensa": 954
  },
  "14": {
    "reference": "LJBMca",
    "name": "Bertrange, LJBM - Cafeteria",
    "region": "Lycée Josy Barthel Mamer",
    "active": true,
    "latitude": 49.621028,
    "longitude": 6.034,
    "street": "2 Rue Gaston Thorn",
    "zip": "L-8268",
    "city": "Bertrange (Luxembourg)",
    "services": [
      [
        86,
        "07:00 - 15:30"
      ]
    ],
    "days": "Mo-Fr",
    "openmensa": 955
  },
  "180": {
    "reference": "LJBMp1",
    "name": "Bertrange, LJBM - Point de Vente 1",
    "region": "Lycée Josy Barthel Mamer",
    "active": true,
    "latitude": 49.620854,
    "longitude": 6.034209,
    "street": "2 Rue Gaston Thorn",
    "zip": "L-8268",
    "city": "Bertrange (Luxembourg)",
    "services": [
      [
        1222,
        "07:00 - 18:00"
      ]
    ],
    "days": "Mo-Fr",
    "openmensa": 956
  },
  "15": {
    "reference": "LCEca",
    "name": "Echternach, LCE Cafeteria",
    "region": "Lycée Classique Echternach",
    "active": true,
    "latitude": 49.8139,
    "longitude": 6.42308,
    "street": "1 Rue du Pont",
    "zip": "L-6471",
    "city": "Echternach (Luxembourg)",
    "services": [
      [
        31,
        "11:30 - 13:45"
      ]
    ],
    "days": "Mo-Fr",
    "openmensa": 957
  },
  "16": {
    "reference": "LCEgrand",
    "name": "Echternach, LCE Grand Réfectoire",
    "region": "Lycée Classique Echternach",
    "active": true,
    "latitude": 49.814,
    "longitude": 6.422,
    "street": "1 Rue du Pont",
    "zip": "L-6471",
    "city": "Echternach (Luxembourg)",
    "services": [
      [
        71,
        "07:00 - 18:00"
      ]
    ],
    "days": "Mo-Fr",
    "openmensa": 958
  },
  "17": {
    "reference": "LCEpetit",
    "name": "Echternach, LCE Petit Réfectoire",
    "region": "Lycée Classique Echternach",
    "active": true,
    "latitude": 49.81431,
    "longitude": 6.42227,
    "street": "1 Rue du Pont",
    "zip": "L-6471",
    "city": "Echternach (Luxembourg)",
    "services": [
      [
        87,
        "11:30 - 13:45"
      ]
    ],
    "days": "Mo-Fr",
    "openmensa": 959
  },
  "18": {
    "reference": "ALre",
    "name": "Luxembourg, AL Restaurant",
    "region": "Athénée de Luxembourg",
    "active": true,
    "latitude": 49.6044,
    "longitude": 6.11069,
    "street": "24 Boulevard Pierre Dupong",
    "zip": "L-1430",
    "city": "Luxembourg",
    "phone": "+352 4402491",
    "services": [
      [
        88,
        "07:00 - 18:00"
      ]
    ],
    "days": "Mo-Fr",
    "openmensa": 960
  },
  "20": {
    "reference": "CmpsGeessForRe",
    "name": "Luxembourg, Forum Restaurant",
    "region": "Campus Geesseknäppchen",
    "active": true,
    "latitude": 49.60057,
    "longitude": 6.11364,
    "street": "40 Boulevard Pierre Dupong",
    "zip": "L-1430",
    "city": "Luxembourg",
    "services": [
      [
        75,
        "07:00 - 18:00"
      ]
    ],
    "days": "Mo-Fr",
    "openmensa": 961
  },
  "21": {
    "reference": "CmpsGeessForCa",
    "name": "Luxembourg, Forum Cafétéria",
    "region": "Campus Geesseknäppchen",
    "active": true,
    "latitude": 49.6005,
    "longitude": 6.1139,
    "street": "40 Boulevard Pierre Dupong",
    "zip": "L-1430",
    "city": "Luxembourg",
    "services": [
      [
        89,
        "08:30 - 14:00"
      ]
    ],
    "days": "Mo-Fr",
    "openmensa": 962
  },
  "22": {
    "reference": "ECGbi",
    "name": "Luxembourg, ECG Bistro",
    "region": "Ecole de Commerce et de Gestion, Geesseknäppchen",
    "active": true,
    "latitude": 49.60282,
    "longitude": 6.1087,
    "street": "21 Rue Marguerite de Brabant",
    "zip": "L-1254",
    "city": "Luxembourg",
    "services": [
      [
        90,
        "07:00 - 18:00"
      ]
    ],
    "days": "Mo-Fr",
    "openmensa": 963
  },
  "23": {
    "reference": "CmpsGeessPisc",
    "name": "Luxembourg, Forum Piscine",
    "region": "Campus Geesseknäppchen",
    "active": true,
    "latitude": 49.6017,
    "longitude": 6.11264,
    "street": "40 Boulevard Pierre Dupong",
    "zip": "L-1430",
    "city": "Luxembourg",
    "services": [
      [
        91,
        "07:30 - 15:00"
      ]
    ],
    "days": "Mo-Fr",
    "openmensa": 964
  },
  "24": {
    "reference": "LAMLca",
    "name": "Luxembourg, LAML Cafétéria",
    "region": "Lycée Aline Mayrisch, Geesseknäppchen",
    "active": true,
    "latitude": 49.60071,
    "longitude": 6.11121,
    "street": "38 Boulevard Pierre Dupong",
    "zip": "L-1430",
    "city": "Luxembourg",
    "phone": "+352 26043211",
    "services": [
      [
        92,
        "07:00 - 18:00"
      ]
    ],
    "days": "Mo-Fr",
    "openmensa": 965
  },
  "25": {
    "reference": "LMRLre",
    "name": "Luxembourg, LMRL Restaurant",
    "region": "Lycée Michel Rodange, Geesseknäppchen",
    "active": true,
    "latitude": 49.60191,
    "longitude": 6.110441,
    "street": "30 Boulevard Pierre Dupong",
    "zip": "L-1430",
    "city": "Luxembourg",
    "phone": "+352 260470",
    "services": [
      [
        67,
        "07:00 - 18:00"
      ]
    ],
    "days": "Mo-Fr",
    "openmensa": 966
  },
  "26": {
    "reference": "LMRLca",
    "name": "Luxembourg, LMRL Cafétéria",
    "region": "Lycée Michel Rodange, Geesseknäppchen",
    "active": true,
    "latitude": 49.60176,
    "longitude": 6.11086,
    "street": "30 Boulevard Pierre Dupong",
    "zip": "L-1430",
    "city": "Luxembourg",
    "phone": "+352 260470",
    "services": [
      [
        93,
        "07:30 - 15:00"
      ]
    ],
    "days": "Mo-Fr",
    "openmensa": 967
  },
  "27": {
    "reference": "LRSLre",
    "name": "Luxembourg, LRSL Restaurant",
    "region": "Lycée Robert Schuman",
    "active": true,
    "latitude": 49.61882,
    "longitude": 6.12671,
    "street": "1, Boulevard Emmanuel Servais",
    "zip": "L-2535",
    "city": "Luxembourg",
    "services": [
      [
        45,
        "07:00 - 18:00"
      ]
    ],
    "days": "Mo-Fr",
    "openmensa": 968
  },
  "28": {
    "reference": "LRSLbi",
    "name": "Luxembourg, LRSL Bistro",
    "region": "Lycée Robert Schuman",
    "active": true,
    "latitude": 49.61901,
    "longitude": 6.12728,
    "street": "1, Boulevard Emmanuel Servais",
    "zip": "L-2535",
    "city": "Luxembourg",
    "services": [
      [
        94,
        "07:30 - 14:00"
      ]
    ],
    "days": "Mo-Fr",
    "openmensa": 969
  },
  "30": {
    "reference": "LGKre",
    "name": "Esch-sur-Alzette, LGK Restaurant",
    "region": "Lycée Guillaume Kroll",
    "active": true,
    "latitude": 49.51008,
    "longitude": 5.96424,
    "street": "32 Rue Henri Koch",
    "zip": "L-4354",
    "city": "Esch-sur-Alzette (Luxembourg)",
    "services": [
      [
        64,
        "07:00 - 18:00"
      ]
    ],
    "days": "Mo-Fr",
    "openmensa": 970
  },
  "31": {
    "reference": "LGKca",
    "name": "Esch-sur-Alzette, LGK Cafétéria",
    "region": "Lycée Guillaume Kroll",
    "active": true,
    "latitude": 49.51027,
    "longitude": 5.9654,
    "street": "32 Rue Henri Koch",
    "zip": "L-4354",
    "city": "Esch-sur-Alzette (Luxembourg)",
    "services": [
      [
        96,
        "07:30 - 16:00"
      ]
    ],
    "days": "Mo-Fr",
    "openmensa": 971
  },
  "32": {
    "reference": "LTPSmerc",
    "name": "Luxembourg, LTPS Restaurant Mercator",
    "region": "Lycée Technique pour Professions de Santé",
    "active": true,
    "latitude": 49.61622,
    "longitude": 6.10128,
    "street": "112, route d'Arlon",
    "zip": "L-1150",
    "city": "Luxembourg",
    "services": [
      [
        56,
        "07:00 - 18:00"
      ]
    ],
    "days": "Mo-Fr",
    "openmensa": 972
  },
  "33": {
    "reference": "LTPSbaSi",
    "name": "Luxembourg, LTPS Cafétéria Barblé Siège",
    "region": "Lycée Technique pour Professions de Santé",
    "active": true,
    "latitude": 49.61924,
    "longitude": 6.0994,
    "street": "27, rue Barblé",
    "zip": "L-1210",
    "city": "Luxembourg",
    "services": [
      [
        35,
        "07:00 - 18:00"
      ]
    ],
    "days": "Mo-Fr",
    "openmensa": 973
  },
  "191": {
    "reference": "LTPSebruck",
    "name": "Ettelbruck, LTPS Restaurant Ettelbruck",
    "region": "Lycée Technique pour Professions de Santé",
    "active": true,
    "latitude": 49.852385,
    "longitude": 6.097723,
    "street": "1, Impasse av. Salentiny",
    "zip": "L-9080",
    "city": "Ettelbruck (Luxembourg)",
    "services": [
      [
        1233,
        "07:00 - 18:00"
      ]
    ],
    "days": "Mo-Fr",
    "openmensa": 974
  },
  "34": {
    "reference": "CDMre",
    "name": "Strassen, CDM Restaurant",
    "region": "Centre pour le développement moteur",
    "active": true,
    "latitude": 49.62103,
    "longitude": 6.09908,
    "street": "1 Place Thomas Edison",
    "zip": "L-1525",
    "city": "Strassen (Luxembourg)",
    "services": [
      [
        16,
        "07:00 - 20:00"
      ]
    ],
    "days": "Mo-Fr",
    "openmensa": 975
  },
  "35": {
    "reference": "LTCPre",
    "name": "Luxembourg, LTCP Restaurant",
    "region": "Lycée Technique du Centre",
    "active": true,
    "latitude": 49.62445,
    "longitude": 6.11698,
    "street": "106 Avenue Pasteur",
    "zip": "L-2309",
    "city": "Luxembourg",
    "services": [
      [
        63,
        "07:00 - 18:00"
      ]
    ],
    "days": "Mo-Fr",
    "openmensa": 976
  },
  "36": {
    "reference": "LTCKre",
    "name": "Luxembourg, LTCK Restaurant",
    "region": "Lycée Technique du Centre Kirchberg",
    "active": true,
    "latitude": 49.62561,
    "longitude": 6.1575,
    "street": "6 Rue Richard Coudenhove-Kalergi",
    "zip": "L-1359",
    "city": "Luxembourg",
    "services": [
      [
        62,
        "07:00 - 18:00"
      ]
    ],
    "days": "Mo-Fr",
    "openmensa": 977
  },
  "37": {
    "reference": "LTCPp1",
    "name": "Luxembourg, LTCP Point de Vente 1",
    "region": "Lycée Technique du Centre",
    "active": true,
    "latitude": 49.62482,
    "longitude": 6.11706,
    "street": "106 Avenue Pasteur",
    "zip": "L-2309",
    "city": "Luxembourg",
    "services": [
      [
        97,
        "08:30 - 14:00"
      ]
    ],
    "days": "Mo-Fr",
    "openmensa": 978
  },
  "38": {
    "reference": "LTCPp2",
    "name": "Luxembourg, LTCP Point de Vente 2",
    "region": "Lycée Technique du Centre",
    "active": true,
    "latitude": 49.62532,
    "longitude": 6.11713,
    "street": "106 Avenue Pasteur",
    "zip": "L-2309",
    "city": "Luxembourg",
    "services": [
      [
        98,
        "08:30 - 14:00"
      ]
    ],
    "days": "Mo-Fr",
    "openmensa": 979
  },
  "39": {
    "reference": "LTCPp3",
    "name": "Luxembourg, LTCP Point de Vente 3",
    "region": "Lycée Technique du Centre",
    "active": true,
    "latitude": 49.62446,
    "longitude": 6.11592,
    "street": "106 Avenue Pasteur",
    "zip": "L-2309",
    "city": "Luxembourg",
    "services": [
      [
        99,
        "08:30 - 14:00"
      ]
    ],
    "days": "Mo-Fr",
    "openmensa": 980
  },
  "40": {
    "reference": "INLre",
    "name": "Luxembourg, INL Restaurant",
    "region": "Institut National des Langues",
    "active": true,
    "latitude": 49.61509,
    "longitude": 6.12055,
    "street": "21 Boulevard de la Foire",
    "zip": "L-1528",
    "city": "Luxembourg",
    "services": [
      [
        73,
        "07:00 - 18:00"
      ]
    ],
    "days": "Mo-Fr",
    "openmensa": 981
  },
  "41": {
    "reference": "CNFPC",
    "name": "Esch-sur-Alzette, CNFPC Esch Restaurant",
    "region": "Centre National de Formation Professionnelle Continue",
    "active": true,
    "latitude": 49.50887,
    "longitude": 5.96157,
    "street": "22 Rue Henri Koch",
    "zip": "L-4354",
    "city": "Esch-sur-Alzette (Luxembourg)",
    "services": [
      [
        79,
        "07:00 - 18:00"
      ]
    ],
    "days": "Mo-Fr",
    "openmensa": 982
  },
  "43": {
    "reference": "LTMAjenker",
    "name": "Differdange, LTMA Restaurant Jenker",
    "region": "Lycée Technique Mathias Adam",
    "active": true,
    "latitude": 49.51741,
    "longitude": 5.90145,
    "street": "9 Rue Pierre Frieden",
    "zip": "L-4560",
    "city": "Differdange (Luxembourg)",
    "services": [
      [
        38,
        "07:00 - 18:00"
      ]
    ],
    "days": "Mo-Fr",
    "openmensa": 983
  },
  "44": {
    "reference": "LCDNBre",
    "name": "Diekirch, LCD-NB Restaurant",
    "region": "Lycée classique de Diekirch Nouveau Bâtiment",
    "active": true,
    "latitude": 49.86448,
    "longitude": 6.16815,
    "street": "rue Joseph Merten",
    "zip": "L-9257",
    "city": "Diekirch (Luxembourg)",
    "services": [
      [
        46,
        "07:00 - 18:00"
      ]
    ],
    "days": "Mo-Fr",
    "openmensa": 984
  },
  "45": {
    "reference": "LCDNBca",
    "name": "Diekirch, LCD-NB Cafeteria",
    "region": "Lycée classique de Diekirch Nouveau Bâtiment",
    "active": true,
    "latitude": 49.86456,
    "longitude": 6.16861,
    "street": "rue Joseph Merten",
    "zip": "L-9257",
    "city": "Diekirch (Luxembourg)",
    "services": [
      [
        100,
        "11:05 - 15:00"
      ]
    ],
    "days": "Mo-Fr",
    "openmensa": 985
  },
  "46": {
    "reference": "LCDABre",
    "name": "Diekirch, LCD-AB Restaurant",
    "region": "Lycée classique de Diekirch Ancien Bâtiment",
    "active": true,
    "latitude": 49.86592,
    "longitude": 6.15624,
    "street": "32, avenue de la Gare",
    "zip": "L-9233",
    "city": "Diekirch (Luxembourg)",
    "services": [
      [
        28,
        "07:00 - 18:00"
      ]
    ],
    "days": "Mo-Fr",
    "openmensa": 986
  },
  "47": {
    "reference": "LGEre",
    "name": "Esch-sur-Alzette, LGE Restaurant",
    "region": "Lycée de Garçons Esch-sur-Alzette",
    "active": true,
    "latitude": 49.49955,
    "longitude": 5.98325,
    "street": "71, rue du Fossé",
    "zip": "L-4123",
    "city": "Esch-sur-Alzette (Luxembourg)",
    "services": [
      [
        6,
        "07:00 - 18:00"
      ]
    ],
    "days": "Mo-Fr",
    "openmensa": 987
  },
  "48": {
    "reference": "LGEca",
    "name": "Esch-sur-Alzette, LGE Cafeteria",
    "region": "Lycée de Garçons Esch-sur-Alzette",
    "active": true,
    "latitude": 49.49996,
    "longitude": 5.98258,
    "street": "71, rue du Fossé",
    "zip": "L-4123",
    "city": "Esch-sur-Alzette (Luxembourg)",
    "services": [
      [
        101,
        "07:30 - 14:00"
      ]
    ],
    "days": "Mo-Fr",
    "openmensa": 988
  },
  "49": {
    "reference": "LGLre",
    "name": "Luxembourg, LGL Restaurant",
    "region": "Lycée de Garçons",
    "active": true,
    "latitude": 49.62,
    "longitude": 6.1213,
    "street": "Place Auguste Laurent",
    "zip": "L-1921",
    "city": "Luxembourg",
    "services": [
      [
        32,
        "07:00 - 18:00"
      ]
    ],
    "days": "Mo-Fr",
    "openmensa": 989
  },
  "50": {
    "reference": "LGLca",
    "name": "Luxembourg, LGL Cafeteria",
    "region": "Lycée de Garçons",
    "active": true,
    "latitude": 49.61979,
    "longitude": 6.12162,
    "street": "Place Auguste Laurent",
    "zip": "L-1921",
    "city": "Luxembourg",
    "services": [
      [
        34,
        "07:00 - 18:00"
      ]
    ],
    "days": "Mo-Fr",
    "openmensa": 990
  },
  "51": {
    "reference": "LHCEre",
    "name": "Esch-sur-Alzette, LHCE Restaurant",
    "region": "Lycée Hubert Clément",
    "active": true,
    "latitude": 49.5028,
    "longitude": 5.97738,
    "street": "2 rue Général Patton",
    "zip": "L-4277",
    "city": "Esch-sur-Alzette (Luxembourg)",
    "services": [
      [
        23,
        "07:00 - 18:00"
      ]
    ],
    "days": "Mo-Fr",
    "openmensa": 991
  },
  "52": {
    "reference": "LAMSLre",
    "name": "Luxembourg, Limpertsberg, LAM-SL Restaurant",
    "region": "Lycée des Arts et Métiers",
    "active": true,
    "latitude": 49.62185,
    "longitude": 6.12571,
    "street": "19 rue Guillaume Schneider",
    "zip": "L-2522",
    "city": "Luxembourg",
    "services": [
      [
        15,
        "07:00 - 18:00"
      ]
    ],
    "days": "Mo-Fr",
    "openmensa": 992
  },
  "53": {
    "reference": "LAMSLca",
    "name": "Luxembourg, Limpertsberg, LAM-SL Cafeteria",
    "region": "Lycée des Arts et Métiers",
    "active": true,
    "latitude": 49.62222,
    "longitude": 6.12619,
    "street": "19 rue Guillaume Schneider",
    "zip": "L-2522",
    "city": "Luxembourg",
    "services": [
      [
        102,
        "07:00 - 15:00"
      ]
    ],
    "days": "Mo-Fr",
    "openmensa": 993
  },
  "54": {
    "reference": "LTETTre",
    "name": "Ettelbruck, LTETT Restaurant",
    "region": "Lycée Technique",
    "active": true,
    "latitude": 49.84999,
    "longitude": 6.09757,
    "street": "71 Avenue Lucien Salentiny",
    "zip": "L-9080",
    "city": "Ettelbruck (Luxembourg)",
    "services": [
      [
        33,
        "07:00 - 18:00"
      ]
    ],
    "days": "Mo-Fr",
    "openmensa": 994
  },
  "55": {
    "reference": "MLGre",
    "name": "Grevenmacher, MLG Restaurant",
    "region": "Maacher Lycée",
    "active": true,
    "latitude": 49.683121,
    "longitude": 6.442776,
    "street": "18 Rue de Muenschecker",
    "zip": "L-6760",
    "city": "Grevenmacher (Luxembourg)",
    "services": [
      [
        58,
        "07:00 - 18:00"
      ]
    ],
    "days": "Mo-Fr",
    "openmensa": 995
  },
  "56": {
    "reference": "MLGca",
    "name": "Grevenmacher, MLG Cafétéria",
    "region": "Maacher Lycée",
    "active": true,
    "latitude": 49.682851,
    "longitude": 6.442427,
    "street": "18 Rue de Muenschecker",
    "zip": "L-6760",
    "city": "Grevenmacher (Luxembourg)",
    "services": [
      [
        103,
        "11:20 - 13:30"
      ]
    ],
    "days": "Mo-Fr",
    "openmensa": 996
  },
  "58": {
    "reference": "LNBre",
    "name": "Dudelange, LNB Restaurant",
    "region": "Lycée Nic-Biever",
    "active": true,
    "latitude": 49.483131,
    "longitude": 6.089133,
    "street": "28, rue du Parc",
    "zip": "L-3542",
    "city": "Dudelange (Luxembourg)",
    "services": [
      [
        69,
        "07:00 - 18:00"
      ]
    ],
    "days": "Mo-Fr",
    "openmensa": 997
  },
  "59": {
    "reference": "LNBca",
    "name": "Dudelange, LNB Cafeteria",
    "region": "Lycée Nic Biever",
    "active": true,
    "latitude": 49.482906,
    "longitude": 6.089018,
    "street": "28, rue du Parc",
    "zip": "L-3542",
    "city": "Dudelange (Luxembourg)",
    "services": [
      [
        105,
        "11:00 - 12:29"
      ],
      [
        1187,
        "12:30 - 15:45"
      ]
    ],
    "days": "Mo-Fr",
    "openmensa": 998
  },
  "60": {
    "reference": "LTAre",
    "name": "Ettelbrück, LTA Restaurant",
    "region": "Lycée Technique Agricole",
    "active": true,
    "latitude": 49.851008,
    "longitude": 6.098693,
    "street": "72, av. Salentiny",
    "zip": "L-9080",
    "city": "Ettelbrück (Luxembourg)",
    "services": [
      [
        172,
        "07:00 - 18:00"
      ]
    ],
    "days": "Mo-Fr",
    "openmensa": 999
  },
  "61": {
    "reference": "LTAca",
    "name": "Ettelbrück, LTA Cafétéria",
    "region": "Lycée Technique Agricole",
    "active": true,
    "latitude": 49.851005,
    "longitude": 6.098875,
    "street": "72, av. Salentiny",
    "zip": "L-9080",
    "city": "Ettelbrück (Luxembourg)",
    "services": [
      [
        106,
        "07:30 - 15:00"
      ]
    ],
    "days": "Mo-Fr",
    "openmensa": 1000
  },
  "62": {
    "reference": "LNre",
    "name": "Wiltz, LN Restaurant",
    "region": "Lycée du Nord",
    "active": true,
    "latitude": 49.964007,
    "longitude": 5.92685,
    "street": "19, rue Général Patton",
    "zip": "L-9551",
    "city": "Wiltz (Luxembourg)",
    "services": [
      [
        41,
        "07:00 - 18:00"
      ]
    ],
    "days": "Mo-Fr",
    "openmensa": 1001
  },
  "63": {
    "reference": "LNca",
    "name": "Wiltz, LN Cafétéria",
    "region": "Lycée du Nord",
    "active": true,
    "latitude": 49.963848,
    "longitude": 5.926689,
    "street": "19, rue Général Patton",
    "zip": "L-9551",
    "city": "Wiltz (Luxembourg)",
    "services": [
      [
        107,
        "11:30 - 14:40"
      ]
    ],
    "days": "Mo-Fr",
    "openmensa": 1002
  },
  "64": {
    "reference": "LTETTA",
    "name": "Ettelbruck Annexe Warken, LTETT-A Restaurant",
    "region": "Lycée Technique",
    "active": true,
    "latitude": 49.857956,
    "longitude": 6.086416,
    "street": "79 Rue de Welscheid",
    "zip": "L-9090",
    "city": "Ettelbruck (Luxembourg)",
    "services": [
      [
        57,
        "07:00 - 18:00"
      ]
    ],
    "days": "Mo-Fr",
    "openmensa": 1003
  },
  "67": {
    "reference": "LCDABca",
    "name": "Diekirch, LCD-AB Cafétéria",
    "region": "Lycée classique de Diekirch Ancien Bâtiment",
    "active": true,
    "latitude": 49.86616,
    "longitude": 6.15691,
    "street": "32, avenue de la Gare",
    "zip": "L-9233",
    "city": "Diekirch (Luxembourg)",
    "services": [
      [
        110,
        "11:30 - 14:00"
      ]
    ],
    "days": "Mo-Fr",
    "openmensa": 1004
  },
  "68": {
    "reference": "LTLre",
    "name": "Esch-sur-Alzette, LTL Restaurant",
    "region": "Lycée Technique de Lallange",
    "active": true,
    "latitude": 49.511265,
    "longitude": 5.98396,
    "street": "Boulevard Hubert Clément",
    "zip": "L-4064",
    "city": "Esch-sur-Alzette (Luxembourg)",
    "services": [
      [
        60,
        "07:00 - 18:00"
      ]
    ],
    "days": "Mo-Fr",
    "openmensa": 1005
  },
  "89": {
    "reference": "LTLca",
    "name": "Esch-sur-Alzette, LTL Caféteria",
    "region": "Lycée Technique de Lallange",
    "active": true,
    "latitude": 49.511829,
    "longitude": 5.983896,
    "street": "Boulevard Hubert Clément",
    "zip": "L-4064",
    "city": "Esch-sur-Alzette (Luxembourg)",
    "services": [
      [
        122,
        "07:30 - 14:30"
      ]
    ],
    "days": "Mo-Fr",
    "openmensa": 1006
  },
  "69": {
    "reference": "ALRre",
    "name": "Redange, ALR Restaurant",
    "region": "Atert Lycée",
    "active": true,
    "latitude": 49.771119,
    "longitude": 5.89942,
    "street": "1 Rue du Lycée",
    "zip": "L-8508",
    "city": "Redange (Luxembourg)",
    "services": [
      [
        52,
        "07:00 - 18:00"
      ]
    ],
    "days": "Mo-Fr",
    "openmensa": 1007
  },
  "70": {
    "reference": "ALRca",
    "name": "Redange, ALR Cafétéria",
    "region": "Atert Lycée",
    "active": true,
    "latitude": 49.771048,
    "longitude": 5.899975,
    "street": "1 Rue du Lycée",
    "zip": "L-8508",
    "city": "Redange (Luxembourg)",
    "services": [
      [
        111,
        "11:00 - 14:00"
      ]
    ],
    "days": "Mo-Fr",
    "openmensa": 1008
  },
  "135": {
    "reference": "ALRint",
    "name": "Redange, ALR Internat",
    "region": "Atert Lycée",
    "active": true,
    "latitude": 49.769967,
    "longitude": 5.90064,
    "street": "1 Rue du Lycée",
    "zip": "L-8508",
    "city": "Redange (Luxembourg)",
    "services": [
      [
        146,
        "16:00 - 20:15"
      ]
    ],
    "days": "Mo-Fr",
    "openmensa": 1009
  },
  "73": {
    "reference": "INSre",
    "name": "Luxembourg, Sportlycée INS Restaurant",
    "region": "Institut National des Sports",
    "active": true,
    "latitude": 49.610802,
    "longitude": 6.144677,
    "street": "66, rue de Trèves",
    "zip": "L-2630",
    "city": "Luxembourg",
    "services": [
      [
        29,
        "07:00 - 18:00"
      ]
    ],
    "days": "Mo-Fr",
    "openmensa": 1010
  },
  "74": {
    "reference": "INSca",
    "name": "Luxembourg, Sportlycée INS Cafétéria",
    "region": "Institut National des Sports",
    "active": true,
    "latitude": 49.610668,
    "longitude": 6.14462,
    "street": "66, rue de Trèves",
    "zip": "L-2630",
    "city": "Luxembourg",
    "services": [
      [
        114,
        "11:30 - 14:20"
      ]
    ],
    "days": "Mo-Fr",
    "openmensa": 1011
  },
  "137": {
    "reference": "SportInt",
    "name": "Luxembourg, Sportlycée - Internat",
    "region": "Institut National des Sports",
    "active": true,
    "latitude": 49.610867,
    "longitude": 6.14392,
    "street": "66, rue de Trèves",
    "zip": "L-2630",
    "city": "Luxembourg",
    "services": [
      [
        148,
        "17:00 - 22:00"
      ]
    ],
    "days": "Mo-Fr",
    "openmensa": 1012
  },
  "76": {
    "reference": "LNBalliance",
    "name": "Dudelange, LNB Annexe Alliance",
    "region": "Lycée Technique Nic Biever",
    "active": true,
    "latitude": 49.472302,
    "longitude": 6.075457,
    "street": "Rue Reiteschkopp",
    "zip": "L-3526",
    "city": "Dudelange (Luxembourg)",
    "services": [
      [
        68,
        "07:00 - 18:00"
      ]
    ],
    "days": "Mo-Fr",
    "openmensa": 1013
  },
  "77": {
    "reference": "LTMAre",
    "name": "Lamadelaine, LTMA Restaurant",
    "region": "Lycée Technique Mathias Adam",
    "active": true,
    "latitude": 49.55462,
    "longitude": 5.85782,
    "street": "Avenue de l'Europe",
    "zip": "L-4802",
    "city": "Lamadelaine (Luxembourg)",
    "services": [
      [
        61,
        "07:00 - 18:00"
      ]
    ],
    "days": "Mo-Fr",
    "openmensa": 1014
  },
  "80": {
    "reference": "Eis",
    "name": "Luxembourg, Eis Schoul Restaurant",
    "region": "",
    "active": true,
    "latitude": 49.627344,
    "longitude": 6.146225,
    "street": "47 Rue des Maraîchers",
    "zip": "L-2124",
    "city": "Luxembourg",
    "services": [
      [
        116,
        "07:00 - 18:00"
      ]
    ],
    "days": "Mo-Fr",
    "openmensa": 1015
  },
  "81": {
    "reference": "LCDMEre",
    "name": "Mersch, LCD-ME Restaurant",
    "region": "Lycée classique de Diekirch Bâtiment de Mersch",
    "active": true,
    "latitude": 49.74909,
    "longitude": 6.10189,
    "street": "square Princesse Marie-Astrid",
    "zip": "L-7523",
    "city": "Mersch (Luxembourg)",
    "services": [
      [
        17,
        "07:00 - 18:00"
      ]
    ],
    "days": "Mo-Fr",
    "openmensa": 1016
  },
  "82": {
    "reference": "LCDMEca",
    "name": "Mersch, LCD-ME Cafétéria",
    "region": "Lycée classique de Diekirch Bâtiment de Mersch",
    "active": false,
    "latitude": 49.74881,
    "longitude": 6.10111,
    "street": "square Princesse Marie-Astrid",
    "zip": "L-7523",
    "city": "Mersch (Luxembourg)",
    "services": [
      [
        117,
        "07:00 - 15:00"
      ]
    ]
  },
  "83": {
    "reference": "CLreAd",
    "name": "Strassen, CL Restaurant Administration",
    "region": "Centre de Logopédie",
    "active": true,
    "latitude": 49.622152,
    "longitude": 6.100423,
    "street": "4 Place Thomas Edison",
    "zip": "L-1483",
    "city": "Strassen (Luxembourg)",
    "services": [
      [
        78,
        "07:00 - 16:00"
      ]
    ],
    "days": "Mo-Fr",
    "openmensa": 1017
  },
  "95": {
    "reference": "CDVre",
    "name": "Bertrange, CDV Restaurant",
    "region": "Centre pour le Développement des competétences relatives à la Vue",
    "active": true,
    "latitude": 49.60267,
    "longitude": 6.07504,
    "street": "17a, route de Longwy",
    "zip": "L-8080",
    "city": "Bertrange (Luxembourg)",
    "services": [
      [
        25,
        "07:00 - 18:00"
      ]
    ],
    "days": "Mo-Fr",
    "openmensa": 1018
  },
  "96": {
    "reference": "LBVre",
    "name": "Belvaux, LBV Restaurant",
    "region": "Lycée Bel-Val",
    "active": true,
    "latitude": 49.50444,
    "longitude": 5.93481,
    "street": "100 Avenue du Blues",
    "zip": "L-4368",
    "city": "Belvaux (Luxembourg)",
    "services": [
      [
        74,
        "07:00 - 18:00"
      ]
    ],
    "days": "Mo-Fr",
    "openmensa": 1019
  },
  "97": {
    "reference": "LBVca",
    "name": "Belvaux, LBV Cafétéria",
    "region": "Lycée Bel-Val",
    "active": true,
    "latitude": 49.50389,
    "longitude": 5.93528,
    "street": "100 Avenue du Blues",
    "zip": "L-4368",
    "city": "Belvaux (Luxembourg)",
    "services": [
      [
        125,
        "07:30 - 16:30"
      ]
    ],
    "days": "Mo-Fr",
    "openmensa": 1020
  },
  "1196": {
    "reference": "LBVtruck",
    "name": "Belvaux, LBV Foodtruck",
    "region": "Lycée Bel-Val",
    "active": true,
    "latitude": 49.50451,
    "longitude": 5.93564,
    "street": "100 Avenue du Blues",
    "zip": "L-4368",
    "city": "Belvaux (Luxembourg)",
    "services": [
      [
        2238,
        "07:00 - 18:00"
      ]
    ],
    "days": "Mo-Fr",
    "openmensa": 1021
  },
  "98": {
    "reference": "LHCEca",
    "name": "Esch-sur-Alzette, LHCE Cafeteria",
    "region": "Lycée Hubert Clément",
    "active": true,
    "latitude": 49.50296,
    "longitude": 5.97787,
    "street": "2 rue Général Patton",
    "zip": "L-4277",
    "city": "Esch-sur-Alzette (Luxembourg)",
    "services": [
      [
        126,
        "07:30 - 14:00"
      ]
    ],
    "days": "Mo-Fr",
    "openmensa": 1022
  },
  "99": {
    "reference": "LTMAca",
    "name": "Lamadelaine, LTMA Cafétéria",
    "region": "Lycée Technique Mathias Adam",
    "active": true,
    "latitude": 49.55501,
    "longitude": 5.85897,
    "street": "Avenue de l'Europe",
    "zip": "L-4802",
    "city": "Lamadelaine (Luxembourg)",
    "services": [
      [
        127,
        "07:30 - 14:00"
      ]
    ],
    "days": "Mo-Fr",
    "openmensa": 1023
  },
  "100": {
    "reference": "LTETTca",
    "name": "Ettelbruck, LTETT Cafétéria",
    "region": "Lycée Technique",
    "active": true,
    "latitude": 49.850275,
    "longitude": 6.097153,
    "street": "71 Avenue Lucien Salentiny",
    "zip": "L-9080",
    "city": "Ettelbruck (Luxembourg)",
    "services": [
      [
        128,
        "11:30 - 13:30"
      ]
    ],
    "days": "Mo-Fr",
    "openmensa": 1024
  },
  "103": {
    "reference": "ENAD",
    "name": "Luxembourg, ENAD Restaurant",
    "region": "Ecole nationale des adultes",
    "active": true,
    "latitude": 49.597163,
    "longitude": 6.120881,
    "street": "15 rue de l'Aciérie",
    "zip": "L-1112",
    "city": "Luxembourg",
    "services": [
      [
        76,
        "07:00 - 18:00"
      ]
    ],
    "days": "Mo-Fr",
    "openmensa": 1025
  },
  "104": {
    "reference": "IEAP",
    "name": "Leudelange, IEAP Restaurant",
    "region": "Institut pour enfants autistes et psychotiques",
    "active": true,
    "latitude": 49.56852,
    "longitude": 6.066245,
    "street": "15, rue de Cessange",
    "zip": "L-3347",
    "city": "Leudelange (Luxembourg)",
    "services": [
      [
        130,
        "07:00 - 15:00"
      ]
    ],
    "days": "Mo-Fr",
    "openmensa": 1026
  },
  "105": {
    "reference": "LuCDIasp",
    "name": "Luxembourg, CDI Restaurant rue d'Aspelt",
    "region": "Centre pour le développement intellectuel",
    "active": true,
    "latitude": 49.608563,
    "longitude": 6.122293,
    "street": "1 Rue Pierre d'Aspelt",
    "zip": "L-1142",
    "city": "Luxembourg",
    "services": [
      [
        131,
        "07:00 - 15:00"
      ]
    ],
    "days": "Mo-Fr",
    "openmensa": 1027
  },
  "1194": {
    "reference": "CDIreBonne",
    "name": "CDI - Restaurant Bonnevoie",
    "region": "Centre pour le développement intellectuel",
    "active": true,
    "latitude": 49.589501,
    "longitude": 6.143386,
    "street": "",
    "zip": "L-1338",
    "city": "Bonnevoie/Luxembourg",
    "services": [
      [
        2236,
        "07:00 - 18:00"
      ]
    ],
    "days": "Mo-Fr",
    "openmensa": 1028
  },
  "1195": {
    "reference": "CDIreCess",
    "name": "CDI - Restaurant Cessange",
    "region": "Centre pour le développement intellectuel",
    "active": true,
    "latitude": 49.589667,
    "longitude": 6.115311,
    "street": "",
    "zip": "L-1471",
    "city": "Luxembourg",
    "services": [
      [
        2237,
        "07:00 - 18:00"
      ]
    ],
    "days": "Mo-Fr",
    "openmensa": 1029
  },
  "186": {
    "reference": "RooSyrCDI",
    "name": "Roodt-sur-Syre, CDI Restaurant",
    "region": "Centre pour le développement intellectuel",
    "active": true,
    "latitude": 49.664893,
    "longitude": 6.299244,
    "street": "20 Route de Luxembourg",
    "zip": "L-6910",
    "city": "Roodt-sur-Syre (Luxembourg)",
    "services": [
      [
        1228,
        "07:00 - 18:00"
      ]
    ],
    "days": "Mo-Fr",
    "openmensa": 1030
  },
  "162": {
    "reference": "CDIreWei",
    "name": "CDI Restaurant Weimerskirch",
    "region": "Centre pour le développement intellectuel",
    "active": true,
    "latitude": 49.631046,
    "longitude": 6.141043,
    "street": "",
    "zip": "L-1918",
    "city": "Luxembourg",
    "services": [
      [
        1181,
        "07:00 - 18:00"
      ]
    ],
    "days": "Mo-Fr",
    "openmensa": 1031
  },
  "163": {
    "reference": "BertCDI",
    "name": "Bertrange, CDI Restaurant",
    "region": "Centre pour le développement intellectuel",
    "active": true,
    "latitude": 49.602529,
    "longitude": 6.074673,
    "street": "17a, route de Longwy",
    "zip": "L-8080",
    "city": "Bertrange (Luxembourg)",
    "services": [
      [
        1182,
        "07:00 - 18:00"
      ]
    ],
    "days": "Mo-Fr",
    "openmensa": 1032
  },
  "142": {
    "reference": "EschCDIrume",
    "name": "Esch-sur-Alzette, CDI Restaurant Rumelange",
    "region": "Centre pour le développement intellectuel",
    "active": true,
    "latitude": 49.49269,
    "longitude": 5.99788,
    "street": "1 Rue de Rumelange",
    "zip": "L-4309",
    "city": "Esch-sur-Alzette (Luxembourg)",
    "services": [
      [
        150,
        "07:00 - 15:00"
      ]
    ],
    "days": "Mo-Fr",
    "openmensa": 1033
  },
  "119": {
    "reference": "EchtCDI",
    "name": "Echternach, CDI Restaurant",
    "region": "Centre pour le développement intellectuel",
    "active": true,
    "latitude": 49.814877,
    "longitude": 6.420145,
    "street": "15-19 r. du chemin de Fer",
    "zip": "L-6439",
    "city": "Echternach (Luxembourg)",
    "services": [
      [
        133,
        "07:00 - 15:00"
      ]
    ],
    "days": "Mo-Fr",
    "openmensa": 1034
  },
  "120": {
    "reference": "EschCDIre",
    "name": "Esch-sur-Alzette, CDI Restaurant",
    "region": "Centre pour le développement intellectuel",
    "active": true,
    "latitude": 49.514933,
    "longitude": 5.98516,
    "street": "Route de mondercange",
    "zip": "L-4247",
    "city": "Esch-sur-Alzette (Luxembourg)",
    "services": [
      [
        134,
        "07:00 - 15:00"
      ]
    ],
    "days": "Mo-Fr",
    "openmensa": 1035
  },
  "125": {
    "reference": "ClerCDI",
    "name": "Clervaux, CDI Restaurant",
    "region": "Centre pour le développement intellectuel",
    "active": true,
    "latitude": 50.053922,
    "longitude": 6.028839,
    "street": "",
    "zip": "L-9714",
    "city": "Clervaux (Luxembourg)",
    "services": [
      [
        138,
        "07:00 - 15:00"
      ]
    ],
    "days": "Mo-Fr",
    "openmensa": 1036
  },
  "126": {
    "reference": "RoeserCDI",
    "name": "Roeser, CDI Restaurant",
    "region": "Centre pour le développement intellectuel",
    "active": true,
    "latitude": 49.540023,
    "longitude": 6.14538,
    "street": "6 Rue des Sacrifiés 1940-1945",
    "zip": "L-3397",
    "city": "Roeser (Luxembourg)",
    "services": [
      [
        139,
        "07:00 - 15:00"
      ]
    ],
    "days": "Mo-Fr",
    "openmensa": 1037
  },
  "129": {
    "reference": "WarkCDI",
    "name": "Ettelbruck, Warken, CDI Restaurant",
    "region": "Centre pour le développement intellectuel",
    "active": true,
    "latitude": 49.857593,
    "longitude": 6.087275,
    "street": "77, rue de Welscheid",
    "zip": "L-9090",
    "city": "Warken/Ettelbruck (Luxembourg)",
    "services": [
      [
        141,
        "07:00 - 15:00"
      ]
    ],
    "days": "Mo-Fr",
    "openmensa": 1038
  },
  "158": {
    "reference": "EIDEDre",
    "name": "Differdange, EIDE-D Restaurant",
    "region": "Ecole Internationale",
    "active": true,
    "latitude": 49.521078,
    "longitude": 5.894902,
    "street": "Campus de l'EIDE",
    "zip": "L-4573",
    "city": "Differdange (Luxembourg)",
    "services": [
      [
        175,
        "07:00 - 18:00"
      ]
    ],
    "days": "Mo-Fr",
    "openmensa": 1039
  },
  "188": {
    "reference": "EIDEDdayCareGaz",
    "name": "Differdange, EIDE-D Day Care Rue du Gaz",
    "region": "Ecole Internationale",
    "active": true,
    "latitude": 49.521512,
    "longitude": 5.896296,
    "street": "21 Rue du Gaz",
    "zip": "L-4573",
    "city": "Differdange (Luxembourg)",
    "services": [
      [
        1230,
        "07:00 - 18:00"
      ]
    ],
    "days": "Mo-Fr",
    "openmensa": 1040
  },
  "169": {
    "reference": "EIDEDdayCareMon",
    "name": "Differdange, EIDE-D Day Care Rue de la Montagne",
    "region": "Ecole Internationale",
    "active": true,
    "latitude": 49.521237,
    "longitude": 5.886548,
    "street": "2, rue de la Montagne",
    "zip": "L-4630",
    "city": "Differdange (Luxembourg)",
    "services": [
      [
        1207,
        "06:00 - 18:30"
      ]
    ],
    "days": "Mo-Fr",
    "openmensa": 1041
  },
  "117": {
    "reference": "EIDEEca",
    "name": "Esch-sur-Alzette, EIDE-E Cafétéria",
    "region": "École internationale",
    "active": true,
    "latitude": 49.495265,
    "longitude": 5.975236,
    "street": "91, rue Victor Hugo",
    "zip": "L-4141",
    "city": "Esch-sur-Alzette (Luxembourg)",
    "services": [
      [
        132,
        "07:30 - 14:00"
      ]
    ],
    "days": "Mo-Fr",
    "openmensa": 1042
  },
  "112": {
    "reference": "EIDEEre",
    "name": "Esch-sur-Alzette, EIDE-E Restaurant",
    "region": "École internationale",
    "active": true,
    "latitude": 49.495592,
    "longitude": 5.975277,
    "street": "91, rue Victor Hugo",
    "zip": "L-4141",
    "city": "Esch-sur-Alzette (Luxembourg)",
    "services": [
      [
        70,
        "07:00 - 18:00"
      ]
    ],
    "days": "Mo-Fr",
    "openmensa": 1043
  },
  "173": {
    "reference": "EIDEEdayCare",
    "name": "Esch-sur-Alzette, EIDE-E Day Care",
    "region": "École internationale",
    "active": true,
    "latitude": 49.4955,
    "longitude": 5.975072,
    "street": "91, rue Victor Hugo",
    "zip": "L-4141",
    "city": "Esch-sur-Alzette (Luxembourg)",
    "services": [
      [
        1211,
        "06:00 - 18:30"
      ]
    ],
    "days": "Mo-Fr",
    "openmensa": 1044
  },
  "118": {
    "reference": "VTT",
    "name": "Luxembourg, VTT - Restaurant",
    "region": "Verhalen-Testen-Trainéieren",
    "active": true,
    "latitude": 49.595729,
    "longitude": 6.160676,
    "street": "rue d'Itzig",
    "zip": "L-1816",
    "city": "Luxembourg",
    "services": [
      [
        36,
        "07:00 - 18:00"
      ]
    ],
    "days": "Mo-Fr",
    "openmensa": 1045
  },
  "132": {
    "reference": "LRSLromarin",
    "name": "Luxembourg, LRSL Restaurant Pizzeria Romarin",
    "region": "Lycée Robert Schuman",
    "active": true,
    "latitude": 49.61859,
    "longitude": 6.126757,
    "street": "1, Boulevard Emmanuel Servais",
    "zip": "L-2535",
    "city": "Luxembourg",
    "services": [
      [
        143,
        "07:00 - 18:00"
      ]
    ],
    "days": "Mo-Fr",
    "openmensa": 1046
  },
  "133": {
    "reference": "LTAIntDi",
    "name": "Ettelbrück, LTA Internat dîner",
    "region": "Lycée Technique Agricole",
    "active": true,
    "latitude": 49.850898,
    "longitude": 6.098878,
    "street": "72, av. Salentiny",
    "zip": "L-9080",
    "city": "Ettelbrück (Luxembourg)",
    "services": [
      [
        144,
        "07:00 - 15:00"
      ]
    ],
    "days": "Mo-Fr",
    "openmensa": 1047
  },
  "134": {
    "reference": "LCEIntDi",
    "name": "Echternach, LCE Internat dîner",
    "region": "Lycée Classique Echternach",
    "active": true,
    "latitude": 49.81388,
    "longitude": 6.42236,
    "street": "1 Rue du Pont",
    "zip": "L-6471",
    "city": "Echternach (Luxembourg)",
    "services": [
      [
        145,
        "07:00 - 15:00"
      ]
    ],
    "days": "Mo-Fr",
    "openmensa": 1048
  },
  "136": {
    "reference": "CDMIntDi",
    "name": "Strassen, CDM Internat dîner",
    "region": "Centre pour le développement moteur",
    "active": false,
    "latitude": 49.62081,
    "longitude": 6.09869,
    "street": "1 Place Thomas Edison",
    "zip": "L-1525",
    "city": "Strassen (Luxembourg)",
    "services": [
      [
        147,
        "07:00 - 18:00"
      ]
    ]
  },
  "138": {
    "reference": "CEDbetz",
    "name": "Roodt-sur-Syre, CED Restaurant Betzdorf",
    "region": "",
    "active": false,
    "latitude": 49.664559,
    "longitude": 6.298174,
    "street": "20 Route de Luxembourg",
    "zip": "L-6916",
    "city": "Roodt-sur-Syre (Luxembourg)",
    "services": [
      [
        42,
        "07:00 - 15:00"
      ]
    ]
  },
  "139": {
    "reference": "LLJre",
    "name": "Junglinster, LLJ Restaurant",
    "region": "Lënster Lycée",
    "active": true,
    "latitude": 49.70002,
    "longitude": 6.24959,
    "street": "2, rue Victor Ferrant",
    "zip": "L-6122",
    "city": "Junglinster (Luxembourg)",
    "services": [
      [
        66,
        "07:00 - 18:00"
      ]
    ],
    "days": "Mo-Fr",
    "openmensa": 1049
  },
  "140": {
    "reference": "LLJca",
    "name": "Junglinster, LLJ Cafeteria",
    "region": "Lënster Lycée",
    "active": true,
    "latitude": 49.70002,
    "longitude": 6.2497,
    "street": "2, rue Victor Ferrant",
    "zip": "L-6122",
    "city": "Junglinster (Luxembourg)",
    "services": [
      [
        149,
        "07:30 - 17:00"
      ]
    ],
    "days": "Mo-Fr",
    "openmensa": 1050
  },
  "141": {
    "reference": "LTPSbasch",
    "name": "Käerjeng, LTPS Cafétéria Bascharage",
    "region": "Lycée Technique pour Professions de Santé",
    "active": true,
    "latitude": 49.5679,
    "longitude": 5.90749,
    "street": "13, rue de l'Église",
    "zip": "L-4922",
    "city": "Käerjeng/Bascharage (Luxembourg)",
    "services": [
      [
        47,
        "07:00 - 18:00"
      ]
    ],
    "days": "Mo-Fr",
    "openmensa": 1051
  },
  "143": {
    "reference": "MLGcaB",
    "name": "Grevenmacher, MLG Cafétéria Bâtiment B",
    "region": "Maacher Lycée",
    "active": false,
    "latitude": 49.68272,
    "longitude": 6.44204,
    "street": "18 Rue de Muenschecker",
    "zip": "L-6760",
    "city": "Grevenmacher (Luxembourg)",
    "services": [
      [
        151,
        "07:30 - 15:00"
      ]
    ]
  },
  "144": {
    "reference": "LGKp1",
    "name": "Esch-sur-Alzette, LGK Point de vente 1",
    "region": "Lycée Guillaume Kroll",
    "active": true,
    "latitude": 49.50956,
    "longitude": 5.96449,
    "street": "32 Rue Henri Koch",
    "zip": "L-4354",
    "city": "Esch-sur-Alzette (Luxembourg)",
    "services": [
      [
        152,
        "07:30 - 14:00"
      ]
    ],
    "days": "Mo-Fr",
    "openmensa": 1052
  },
  "145": {
    "reference": "LMLp1",
    "name": "Luxembourg, LML Point de Vente 1",
    "region": "Lycée Michel Lucius",
    "active": true,
    "latitude": 49.624671,
    "longitude": 6.113704,
    "street": "157 Avenue Pasteur",
    "zip": "L-2311",
    "city": "Luxembourg",
    "services": [
      [
        153,
        "07:30 - 15:00"
      ]
    ],
    "days": "Mo-Fr",
    "openmensa": 1053
  },
  "116": {
    "reference": "LMLca",
    "name": "Luxembourg, LML Cafétéria",
    "region": "Lycée Michel Lucius",
    "active": true,
    "latitude": 49.624553,
    "longitude": 6.114001,
    "street": "157 Avenue Pasteur",
    "zip": "L-2311",
    "city": "Luxembourg",
    "services": [
      [
        44,
        "07:00 - 18:00"
      ]
    ],
    "days": "Mo-Fr",
    "openmensa": 1054
  },
  "146": {
    "reference": "EPOLre",
    "name": "Luxembourg, EPOL Restaurant Ecole de Police",
    "region": "Ecole de Police",
    "active": true,
    "latitude": 49.606441,
    "longitude": 6.142361,
    "street": "7 Rue Emile Mayrisch",
    "zip": "L-2141",
    "city": "Luxembourg",
    "services": [
      [
        77,
        "07:00 - 18:00"
      ]
    ],
    "days": "Mo-Fr",
    "openmensa": 1055
  },
  "153": {
    "reference": "EPOLint",
    "name": "Luxembourg, EPOL Internat dîner",
    "region": "Ecole de Police",
    "active": true,
    "latitude": 49.606475,
    "longitude": 6.142665,
    "street": "7 Rue Emile Mayrisch",
    "zip": "L-2141",
    "city": "Luxembourg",
    "services": [
      [
        159,
        "16:00 - 20:00"
      ]
    ],
    "days": "Mo-Fr",
    "openmensa": 1056
  },
  "147": {
    "reference": "BlvlFoodHouse",
    "name": "Esch-sur-Alzette, Food House",
    "region": "Campus Belval",
    "active": true,
    "latitude": 49.50375,
    "longitude": 5.949432,
    "street": "9 Avenue des Hauts-Fourneaux",
    "zip": "L-4362",
    "city": "Esch-sur-Alzette (Luxembourg)",
    "services": [
      [
        53,
        "07:00 - 17:00"
      ]
    ],
    "days": "Mo-Fr",
    "openmensa": 1057
  },
  "148": {
    "reference": "BlvlFoodCafe",
    "name": "Esch-sur-Alzette, Food Café du Savoir",
    "region": "Campus Belval",
    "active": true,
    "latitude": 49.504136,
    "longitude": 5.949436,
    "street": "9 Avenue des Hauts-Fourneaux",
    "zip": "L-4362",
    "city": "Esch-sur-Alzette (Luxembourg)",
    "services": [
      [
        154,
        "07:30 - 17:00"
      ]
    ],
    "days": "Mo-Fr",
    "openmensa": 1058
  },
  "149": {
    "reference": "BlvlFoodZone",
    "name": "Esch-sur-Alzette, Food Zone",
    "region": "Campus Belval",
    "active": true,
    "latitude": 49.501756,
    "longitude": 5.948662,
    "street": "9 Avenue des Hauts-Fourneaux",
    "zip": "L-4362",
    "city": "Esch-sur-Alzette (Luxembourg)",
    "services": [
      [
        155,
        "11:30 - 16:30"
      ]
    ],
    "days": "Mo-Fr",
    "openmensa": 1059
  },
  "150": {
    "reference": "BlvlFoodLab",
    "name": "Esch-sur-Alzette, Food Lab",
    "region": "Campus Belval",
    "active": true,
    "latitude": 49.503922,
    "longitude": 5.946861,
    "street": "11 Porte des Sciences",
    "zip": "L-4366",
    "city": "Esch-sur-Alzette (Luxembourg)",
    "services": [
      [
        156,
        "10:00 - 17:00"
      ]
    ],
    "days": "Mo-Fr",
    "openmensa": 1060
  },
  "152": {
    "reference": "eduPoleSchlass",
    "name": "Walferdange, eduPôle Brasserie am Schlass",
    "region": "Pôle de l'Education Nationale",
    "active": true,
    "latitude": 49.6599,
    "longitude": 6.1334,
    "street": "28 Route de Diekirch Bâtiment X",
    "zip": "L-7220",
    "city": "Walferdange (Luxembourg)",
    "services": [
      [
        157,
        "08:30 - 16:00"
      ]
    ],
    "days": "Mo-Fr",
    "openmensa": 1061
  },
  "154": {
    "reference": "eduPoleHaras",
    "name": "Walferdange, eduPôle Le Haras",
    "region": "Pôle de l'Education Nationale",
    "active": true,
    "latitude": 49.66063,
    "longitude": 6.13381,
    "street": "28 Route de Diekirch Bâtiment X",
    "zip": "L-7220",
    "city": "Walferdange (Luxembourg)",
    "services": [
      [
        167,
        "07:00 - 18:00"
      ]
    ],
    "days": "Mo-Fr",
    "openmensa": 1062
  },
  "155": {
    "reference": "eduPoleCharlemagne",
    "name": "Walferdange, eduPôle Ecole Charlemagne",
    "region": "Pôle de l'Education Nationale",
    "active": true,
    "latitude": 49.65948,
    "longitude": 6.13411,
    "street": "Route de Diekirch Bâtiment IX",
    "zip": "L-7220",
    "city": "Walferdange (Luxembourg)",
    "services": [
      [
        169,
        "08:30 - 14:00"
      ]
    ],
    "days": "Mo-Fr",
    "openmensa": 1063
  },
  "160": {
    "reference": "CmpsKiBergJohns",
    "name": "Luxembourg, Campus Kirchberg, Brasserie John's",
    "region": "Université de Luxembourg",
    "active": true,
    "latitude": 49.626196,
    "longitude": 6.159232,
    "street": "29, Avenue John F. Kennedy",
    "zip": "L-1855",
    "city": "Luxembourg",
    "services": [
      [
        178,
        "08:30 - 18:00"
      ]
    ],
    "days": "Mo-Fr",
    "openmensa": 1064
  },
  "164": {
    "reference": "CmpsKiBergAltius",
    "name": "Luxembourg, Campus Kirchberg, Altius",
    "region": "Université de Luxembourg",
    "active": true,
    "latitude": 49.62612,
    "longitude": 6.158867,
    "street": "29, Avenue John F. Kennedy",
    "zip": "L-1855",
    "city": "Luxembourg",
    "services": [
      [
        1183,
        "07:00 - 18:00"
      ]
    ],
    "days": "Mo-Fr",
    "openmensa": 1065
  },
  "161": {
    "reference": "LTBre",
    "name": "Luxembourg, LTB Restaurant",
    "region": "Lycée Technique de Bonnevoie",
    "active": true,
    "latitude": 49.590352,
    "longitude": 6.142873,
    "street": "119, rue du Cimetière",
    "zip": "L-1338",
    "city": "Luxembourg",
    "source": "https://www.ltb.lu/menu-de-la-semaine",
    "services": [
      [
        180,
        "07:00 - 18:00"
      ]
    ],
    "days": "Mo-Fr",
    "openmensa": 1066
  },
  "183": {
    "reference": "LTBRca",
    "name": "Luxembourg, LTBR Cafétéria",
    "region": "Lycée Technique de Bonnevoie",
    "active": false,
    "latitude": 49.590084,
    "longitude": 6.143012,
    "street": "119, rue du Cimetière",
    "zip": "L-1338",
    "city": "Luxembourg",
    "source": "https://www.ltb.lu/menu-de-la-semaine",
    "services": [
      [
        1225,
        "07:00 - 18:00"
      ]
    ]
  },
  "184": {
    "reference": "LTBRpv",
    "name": "Luxembourg, LTBR Point de vente",
    "region": "Lycée Technique de Bonnevoie",
    "active": false,
    "latitude": 49.590842,
    "longitude": 6.142486,
    "street": "119, rue du Cimetière",
    "zip": "L-1338",
    "city": "Luxembourg",
    "source": "https://www.ltb.lu/menu-de-la-semaine",
    "services": [
      [
        1226,
        "07:00 - 18:00"
      ]
    ]
  },
  "165": {
    "reference": "SCvisExt",
    "name": "Differdange, Science Center, Visiteur externe",
    "region": "",
    "active": true,
    "latitude": 49.52231,
    "longitude": 5.894673,
    "street": "50, rue Emile Mark",
    "zip": "L-4620",
    "city": "Differdange (Luxembourg)",
    "services": [
      [
        1203,
        "07:00 - 18:00"
      ]
    ],
    "days": "Mo-Fr",
    "openmensa": 1067
  },
  "172": {
    "reference": "SCvisEleve",
    "name": "Differdange, Science Center, Visiteur élève",
    "region": "",
    "active": true,
    "latitude": 49.522226,
    "longitude": 5.89442,
    "street": "50, rue Emile Mark",
    "zip": "L-4620",
    "city": "Differdange (Luxembourg)",
    "services": [
      [
        1210,
        "07:00 - 18:00"
      ]
    ],
    "days": "Mo-Fr",
    "openmensa": 1068
  },
  "166": {
    "reference": "ALp1",
    "name": "Luxembourg, AL Point de vente 1",
    "region": "Athénée de Luxembourg",
    "active": false,
    "latitude": 49.60444,
    "longitude": 6.11046,
    "street": "24 Boulevard Pierre Dupong",
    "zip": "L-1430",
    "city": "Luxembourg",
    "phone": "+352 4402491",
    "services": [
      [
        1204,
        "11:15 - 15:00"
      ]
    ]
  },
  "168": {
    "reference": "ISMLre",
    "name": "Luxembourg, ISML Restaurant",
    "region": "International School Michel Lucius",
    "active": true,
    "latitude": 49.624257,
    "longitude": 6.118043,
    "street": "1, avenue Joseph Sax",
    "zip": "L-2515",
    "city": "Luxembourg",
    "services": [
      [
        1206,
        "07:00 - 18:00"
      ]
    ],
    "days": "Mo-Fr",
    "openmensa": 1069
  },
  "171": {
    "reference": "ISMLdayCare",
    "name": "Luxembourg, ISML Day Care",
    "region": "International School Michel Lucius",
    "active": true,
    "latitude": 49.62416,
    "longitude": 6.117383,
    "street": "1, avenue Joseph Sax",
    "zip": "L-2515",
    "city": "Luxembourg",
    "services": [
      [
        1209,
        "07:00 - 18:00"
      ]
    ],
    "days": "Mo-Fr",
    "openmensa": 1070
  },
  "170": {
    "reference": "LLJdayCare",
    "name": "Junglinster, LLJ Day Care",
    "region": "Lënster Lycée",
    "active": true,
    "latitude": 49.70002,
    "longitude": 6.2501,
    "street": "2, rue Victor Ferrant",
    "zip": "L-6122",
    "city": "Junglinster (Luxembourg)",
    "services": [
      [
        1208,
        "07:00 - 18:00"
      ]
    ],
    "days": "Mo-Fr",
    "openmensa": 1071
  },
  "177": {
    "reference": "LESCre",
    "name": "Clervaux, LESC Restaurant",
    "region": "Lycée Edward Steichen",
    "active": true,
    "latitude": 50.065615,
    "longitude": 6.023359,
    "street": "1 Rue Edward Steichen",
    "zip": "L-9707",
    "city": "Clervaux (Luxembourg)",
    "services": [
      [
        1219,
        "07:00 - 18:00"
      ]
    ],
    "days": "Mo-Fr",
    "openmensa": 1072
  },
  "178": {
    "reference": "LESCca",
    "name": "Clervaux, LESC Cafétéria",
    "region": "Lycée Edward Steichen",
    "active": true,
    "latitude": 50.065518,
    "longitude": 6.022852,
    "street": "1 Rue Edward Steichen",
    "zip": "L-9707",
    "city": "Clervaux (Luxembourg)",
    "services": [
      [
        1220,
        "07:00 - 18:00"
      ]
    ],
    "days": "Mo-Fr",
    "openmensa": 1085
  },
  "179": {
    "reference": "EIMLBre",
    "name": "Mondorf-les-Bains, EIMLB Restaurant",
    "region": "Ecole internationale",
    "active": true,
    "latitude": 49.500433,
    "longitude": 6.28475,
    "street": "2, route de Burmerange",
    "zip": "L-5659",
    "city": "Mondorf-les-Bains (Luxembourg)",
    "services": [
      [
        1221,
        "07:00 - 18:00"
      ]
    ],
    "days": "Mo-Fr",
    "openmensa": 1073
  },
  "187": {
    "reference": "EIMLBdayCare",
    "name": "Mondorf-les-Bains, EIMLB Day Care",
    "region": "Ecole internationale",
    "active": true,
    "latitude": 49.500283,
    "longitude": 6.284704,
    "street": "2, route de Burmerange",
    "zip": "L-5659",
    "city": "Mondorf-les-Bains (Luxembourg)",
    "services": [
      [
        1229,
        "07:00 - 18:00"
      ]
    ],
    "days": "Mo-Fr",
    "openmensa": 1074
  },
  "189": {
    "reference": "LCDBEre",
    "name": "Mersch, LCD-BE Restaurant",
    "region": "Lycée classique de Diekirch Bâtiment de Beringen",
    "active": true,
    "latitude": 49.75705,
    "longitude": 6.11164,
    "street": "46, rue de la Gare",
    "zip": "L-7590",
    "city": "Mersch (Luxembourg)",
    "services": [
      [
        1231,
        "07:00 - 18:00"
      ]
    ],
    "days": "Mo-Fr",
    "openmensa": 1075
  },
  "192": {
    "reference": "CmpsGeessTruck",
    "name": "Luxembourg, Foodtruck",
    "region": "Forum Campus Geesseknäppchen",
    "active": true,
    "latitude": 49.60093,
    "longitude": 6.11344,
    "street": "40 Boulevard Pierre Dupong",
    "zip": "L-1430",
    "city": "Luxembourg",
    "services": [
      [
        1234,
        "07:00 - 18:00"
      ]
    ],
    "days": "Mo-Fr",
    "openmensa": 1076
  },
  "193": {
    "reference": "LRSLhall",
    "name": "Luxembourg, LRSL Cafétéria Hall",
    "region": "Lycée Robert Schuman",
    "active": true,
    "latitude": 49.61908,
    "longitude": 6.12754,
    "street": "1, Boulevard Emmanuel Servais",
    "zip": "L-2535",
    "city": "Luxembourg",
    "services": [
      [
        1235,
        "07:00 - 18:00"
      ]
    ],
    "days": "Mo-Fr",
    "openmensa": 1077
  },
  "194": {
    "reference": "MLGBBQ",
    "name": "Grevenmacher, MLG BBQ",
    "region": "Maacher Lycée",
    "active": false,
    "latitude": 49.682764,
    "longitude": 6.442781,
    "street": "18 Rue de Muenschecker",
    "zip": "L-6760",
    "city": "Grevenmacher (Luxembourg)",
    "services": [
      [
        1236,
        "07:00 - 18:00"
      ]
    ]
  },
  "195": {
    "reference": "ALBBQ",
    "name": "Luxembourg, AL BBQ",
    "region": "Athénée",
    "active": true,
    "latitude": 49.60381,
    "longitude": 6.11101,
    "street": "24 Boulevard Pierre Dupong",
    "zip": "L-1430",
    "city": "Luxembourg",
    "phone": "+352 4402491",
    "services": [
      [
        1237,
        "07:00 - 18:00"
      ]
    ],
    "days": "Mo-Fr",
    "openmensa": 1078
  },
  "1197": {
    "reference": "CSAEMerl",
    "name": "Luxembourg, CSAE Merl",
    "region": "Classes spécialisées d'accueil de l'Etat",
    "active": true,
    "latitude": 49.603232,
    "longitude": 6.099709,
    "street": "Rue Adam Roberti",
    "zip": "L-2429",
    "city": "Luxembourg",
    "services": [
      [
        2239,
        "07:00 - 18:00"
      ]
    ],
    "days": "Mo-Fr",
    "openmensa": 1079
  },
  "1198": {
    "reference": "Agora",
    "name": "Luxembourg, Agora Limpertsberg",
    "region": "Lycée Technique du Centre",
    "active": true,
    "latitude": 49.62588,
    "longitude": 6.15805,
    "street": "6 Rue Richard Coudenhove-Kalergi",
    "zip": "L-1359",
    "city": "Luxembourg",
    "services": [
      [
        2241,
        "07:00 - 18:00"
      ]
    ],
    "days": "Mo-Fr",
    "openmensa": 1080
  },
  "1199": {
    "reference": "LTPESre",
    "name": "Mersch, LTPES Restaurant",
    "region": "Lycée Technique pour professions éducatives et sociales",
    "active": true,
    "latitude": 49.756955,
    "longitude": 6.112354,
    "street": "45, rue de la Gare",
    "zip": "L-7590",
    "city": "Mersch (Luxembourg)",
    "services": [
      [
        2242,
        "07:00 - 18:00"
      ]
    ],
    "days": "Mo-Fr",
    "openmensa": 1081
  },
  "1200": {
    "reference": "MENJEALDre",
    "name": "Luxembourg, MENJE ALD Restaurant",
    "region": "Ministère de l'Education nationale",
    "active": false,
    "latitude": 49.610155,
    "longitude": 6.12726,
    "street": "29 Rue Aldringen",
    "zip": "L-2926",
    "city": "Luxembourg",
    "services": [
      [
        2243,
        "07:00 - 18:00"
      ]
    ]
  },
  "1201": {
    "reference": "eduPoleHarasFrupstut",
    "name": "Walferdange, eduPôle Le Haras Frupstut",
    "region": "Pôle de l'Education Nationale",
    "active": true,
    "latitude": 49.66063,
    "longitude": 6.13381,
    "street": "28 Route de Diekirch Bâtiment X",
    "zip": "L-7220",
    "city": "Walferdange (Luxembourg)",
    "services": [
      [
        2244,
        "07:00 - 18:00"
      ]
    ],
    "days": "Mo-Fr",
    "openmensa": 1082
  }
}