{
  "1207": {
    "reference": "ALre",
    "name": "Luxembourg, AL Restaurant",
    "region": "Athénée de Luxembourg",
    "active": true,
    "latitude": 49.6044,
    "longitude": 6.11069,
    "street": "24 Boulevard Pierre Dupong",
    "zip": "L-1430",
    "city": "Luxembourg",
    "phone": "+352 4402491",
    "days": "Mo-Fr",
    "openmensa": 960,
    "services": [
      [
        2253,
        "10:00 - 15:00"
      ]
    ]
  },
  "1208": {
    "reference": "ALRre",
    "name": "Redange, ALR Restaurant",
    "region": "Atert Lycée",
    "active": true,
    "latitude": 49.771119,
    "longitude": 5.89942,
    "street": "1 Rue du Lycée",
    "zip": "L-8508",
    "city": "Redange (Luxembourg)",
    "days": "Mo-Fr",
    "openmensa": 1007,
    "services": [
      [
        2254,
        "10:00 - 15:00"
      ]
    ]
  },
  "1209": {
    "reference": "CmpsKiBergAltius",
    "name": "Luxembourg, Campus Kirchberg, Altius",
    "region": "Université de Luxembourg",
    "active": true,
    "latitude": 49.62612,
    "longitude": 6.158867,
    "street": "29, Avenue John F. Kennedy",
    "zip": "L-1855",
    "city": "Luxembourg",
    "services": [
      [
        2255,
        "10:00 - 15:00"
      ]
    ],
    "days": "Mo-Fr",
    "openmensa": 1065
  },
  "1210": {
    "reference": "BlvlFoodHouse",
    "name": "Esch-sur-Alzette, Food House",
    "region": "Campus Belval",
    "active": true,
    "latitude": 49.50375,
    "longitude": 5.949432,
    "street": "9 Avenue des Hauts-Fourneaux",
    "zip": "L-4362",
    "city": "Esch-sur-Alzette (Luxembourg)",
    "services": [
      [
        2256,
        "10:00 - 15:00"
      ]
    ],
    "days": "Mo-Fr",
    "openmensa": 1057
  },
  "1270": {
    "reference": "ClerCDI",
    "name": "Clervaux, CDI Restaurant",
    "region": "Centre pour le développement intellectuel",
    "active": true,
    "latitude": 50.053922,
    "longitude": 6.028839,
    "street": "",
    "zip": "L-9714",
    "city": "Clervaux (Luxembourg)",
    "services": [
      [
        2316,
        "07:00 - 18:00"
      ]
    ],
    "days": "Mo-Fr",
    "openmensa": 1036
  },
  "1271": {
    "reference": "EchtCDI",
    "name": "Echternach, CDI Restaurant",
    "region": "Centre pour le développement intellectuel",
    "active": true,
    "latitude": 49.814877,
    "longitude": 6.420145,
    "street": "15-19 r. du chemin de Fer",
    "zip": "L-6439",
    "city": "Echternach (Luxembourg)",
    "services": [
      [
        2317,
        "07:00 - 18:00"
      ]
    ],
    "days": "Mo-Fr",
    "openmensa": 1034
  },
  "1272": {
    "reference": "EschCDIre",
    "name": "Esch-sur-Alzette, CDI Restaurant",
    "region": "Centre pour le développement intellectuel",
    "active": true,
    "latitude": 49.514933,
    "longitude": 5.98516,
    "street": "Route de mondercange",
    "zip": "L-4247",
    "city": "Esch-sur-Alzette (Luxembourg)",
    "services": [
      [
        2318,
        "07:00 - 18:00"
      ]
    ],
    "days": "Mo-Fr",
    "openmensa": 1035
  },
  "1273": {
    "reference": "RoeserCDI",
    "name": "Roeser, CDI Restaurant",
    "region": "Centre pour le développement intellectuel",
    "active": true,
    "latitude": 49.540023,
    "longitude": 6.14538,
    "street": "6 Rue des Sacrifiés 1940-1945",
    "zip": "L-3397",
    "city": "Roeser (Luxembourg)",
    "services": [
      [
        2319,
        "07:00 - 18:00"
      ]
    ],
    "days": "Mo-Fr",
    "openmensa": 1037
  },
  "1274": {
    "reference": "RooSyrCDI",
    "name": "Roodt-sur-Syre, CDI Restaurant",
    "region": "Centre pour le développement intellectuel",
    "active": true,
    "latitude": 49.664893,
    "longitude": 6.299244,
    "street": "20 Route de Luxembourg",
    "zip": "L-6910",
    "city": "Roodt-sur-Syre (Luxembourg)",
    "services": [
      [
        2320,
        "07:00 - 18:00"
      ]
    ],
    "days": "Mo-Fr",
    "openmensa": 1030
  },
  "1275": {
    "reference": "LuCDIasp",
    "name": "Luxembourg, CDI Restaurant rue d'Aspelt",
    "region": "Centre pour le développement intellectuel",
    "active": true,
    "latitude": 49.608563,
    "longitude": 6.122293,
    "street": "1 Rue Pierre d'Aspelt",
    "zip": "L-1142",
    "city": "Luxembourg",
    "services": [
      [
        2321,
        "07:00 - 18:00"
      ]
    ],
    "days": "Mo-Fr",
    "openmensa": 1027
  },
  "1276": {
    "reference": "EschCDIrume",
    "name": "Esch-sur-Alzette, CDI Restaurant Rumelange",
    "region": "Centre pour le développement intellectuel",
    "active": true,
    "latitude": 49.49269,
    "longitude": 5.99788,
    "street": "1 Rue de Rumelange",
    "zip": "L-4309",
    "city": "Esch-sur-Alzette (Luxembourg)",
    "services": [
      [
        2322,
        "07:00 - 18:00"
      ]
    ],
    "days": "Mo-Fr",
    "openmensa": 1033
  },
  "1277": {
    "reference": "WarkCDI",
    "name": "Ettelbruck, Warken, CDI Restaurant",
    "region": "Centre pour le développement intellectuel",
    "active": true,
    "latitude": 49.857593,
    "longitude": 6.087275,
    "street": "77, rue de Welscheid",
    "zip": "L-9090",
    "city": "Warken/Ettelbruck (Luxembourg)",
    "services": [
      [
        2323,
        "07:00 - 18:00"
      ]
    ],
    "days": "Mo-Fr",
    "openmensa": 1038
  },
  "1214": {
    "reference": "CNFPC",
    "name": "Esch-sur-Alzette, CNFPC Esch Restaurant",
    "region": "Centre National de Formation Professionnelle Continue",
    "active": true,
    "latitude": 49.50887,
    "longitude": 5.96157,
    "street": "22 Rue Henri Koch",
    "zip": "L-4354",
    "city": "Esch-sur-Alzette (Luxembourg)",
    "services": [
      [
        2260,
        "10:00 - 15:00"
      ]
    ],
    "days": "Mo-Fr",
    "openmensa": 982
  },
  "1215": {
    "reference": "ECGbi",
    "name": "Luxembourg, ECG Bistro",
    "region": "Ecole de Commerce et de Gestion, Geesseknäppchen",
    "active": true,
    "latitude": 49.60282,
    "longitude": 6.1087,
    "street": "21 Rue Marguerite de Brabant",
    "zip": "L-1254",
    "city": "Luxembourg",
    "services": [
      [
        2261,
        "10:00 - 15:00"
      ]
    ],
    "days": "Mo-Fr",
    "openmensa": 963
  },
  "1216": {
    "reference": "eduPoleSchlass",
    "name": "Walferdange, eduPôle Brasserie am Schlass",
    "region": "Pôle de l'Education Nationale",
    "active": true,
    "latitude": 49.6599,
    "longitude": 6.1334,
    "street": "28 Route de Diekirch Bâtiment X",
    "zip": "L-7220",
    "city": "Walferdange (Luxembourg)",
    "services": [
      [
        2262,
        "10:00 - 15:00"
      ]
    ],
    "days": "Mo-Fr",
    "openmensa": 1061
  },
  "1217": {
    "reference": "EIDEDre",
    "name": "Differdange, EIDE-D Restaurant",
    "region": "Ecole Internationale",
    "active": true,
    "latitude": 49.521078,
    "longitude": 5.894902,
    "street": "Campus de l'EIDE",
    "zip": "L-4573",
    "city": "Differdange (Luxembourg)",
    "services": [
      [
        2263,
        "10:00 - 15:00"
      ]
    ],
    "days": "Mo-Fr",
    "openmensa": 1039
  },
  "1218": {
    "reference": "EIDEEca",
    "name": "Esch-sur-Alzette, EIDE-E Cafétéria",
    "region": "École internationale",
    "active": true,
    "latitude": 49.495265,
    "longitude": 5.975236,
    "street": "91, rue Victor Hugo",
    "zip": "L-4141",
    "city": "Esch-sur-Alzette (Luxembourg)",
    "services": [
      [
        2264,
        "10:00 - 15:00"
      ]
    ],
    "days": "Mo-Fr",
    "openmensa": 1042
  },
  "1219": {
    "reference": "EIMLBre",
    "name": "Mondorf-les-Bains, EIMLB Restaurant",
    "region": "Ecole internationale",
    "active": true,
    "latitude": 49.500433,
    "longitude": 6.28475,
    "street": "2, route de Burmerange",
    "zip": "L-5659",
    "city": "Mondorf-les-Bains (Luxembourg)",
    "services": [
      [
        2265,
        "10:00 - 15:00"
      ]
    ],
    "days": "Mo-Fr",
    "openmensa": 1073
  },
  "1221": {
    "reference": "ENAD",
    "name": "Luxembourg, ENAD Restaurant",
    "region": "Ecole nationale des adultes",
    "active": true,
    "latitude": 49.597163,
    "longitude": 6.120881,
    "street": "15 rue de l'Aciérie",
    "zip": "L-1112",
    "city": "Luxembourg",
    "services": [
      [
        2267,
        "10:00 - 15:00"
      ]
    ],
    "days": "Mo-Fr",
    "openmensa": 1025
  },
  "1222": {
    "reference": "EPOLre",
    "name": "Luxembourg, EPOL Restaurant Ecole de Police",
    "region": "Ecole de Police",
    "active": true,
    "latitude": 49.606441,
    "longitude": 6.142361,
    "street": "7 Rue Emile Mayrisch",
    "zip": "L-2141",
    "city": "Luxembourg",
    "services": [
      [
        2268,
        "10:00 - 15:00"
      ]
    ],
    "days": "Mo-Fr",
    "openmensa": 1055
  },
  "1224": {
    "reference": "INLre",
    "name": "Luxembourg, INL Restaurant",
    "region": "Institut National des Langues",
    "active": true,
    "latitude": 49.61509,
    "longitude": 6.12055,
    "street": "21 Boulevard de la Foire",
    "zip": "L-1528",
    "city": "Luxembourg",
    "services": [
      [
        2270,
        "10:00 - 15:00"
      ]
    ],
    "days": "Mo-Fr",
    "openmensa": 981
  },
  "1225": {
    "reference": "ISMLre",
    "name": "Luxembourg, ISML Restaurant",
    "region": "International School Michel Lucius",
    "active": true,
    "latitude": 49.624257,
    "longitude": 6.118043,
    "street": "1, avenue Joseph Sax",
    "zip": "L-2515",
    "city": "Luxembourg",
    "services": [
      [
        2271,
        "10:00 - 15:00"
      ]
    ],
    "days": "Mo-Fr",
    "openmensa": 1069
  },
  "1226": {
    "reference": "CmpsKiBergJohns",
    "name": "Luxembourg, Campus Kirchberg, Brasserie John's",
    "region": "Université de Luxembourg",
    "active": true,
    "latitude": 49.626196,
    "longitude": 6.159232,
    "street": "29, Avenue John F. Kennedy",
    "zip": "L-1855",
    "city": "Luxembourg",
    "services": [
      [
        2272,
        "10:00 - 15:00"
      ]
    ],
    "days": "Mo-Fr",
    "openmensa": 1064
  },
  "1227": {
    "reference": "LAMLca",
    "name": "Luxembourg, LAML Cafétéria",
    "region": "Lycée Aline Mayrisch, Geesseknäppchen",
    "active": true,
    "latitude": 49.60071,
    "longitude": 6.11121,
    "street": "38 Boulevard Pierre Dupong",
    "zip": "L-1430",
    "city": "Luxembourg",
    "phone": "+352 26043211",
    "services": [
      [
        2273,
        "10:00 - 15:00"
      ]
    ],
    "days": "Mo-Fr",
    "openmensa": 965
  },
  "1228": {
    "reference": "LAMSDre",
    "name": "Luxembourg, Dommeldange, LAM-SD - Restaurant",
    "region": "Lycée des Arts et Métiers",
    "active": true,
    "latitude": 49.63709,
    "longitude": 6.137401,
    "street": "20 Rue Nicolas Hein",
    "zip": "L-1721",
    "city": "Luxembourg",
    "services": [
      [
        2274,
        "10:00 - 15:00"
      ]
    ],
    "days": "Mo-Fr",
    "openmensa": 952
  },
  "1229": {
    "reference": "LAMSLre",
    "name": "Luxembourg, Limpertsberg, LAM-SL Restaurant",
    "region": "Lycée des Arts et Métiers",
    "active": true,
    "latitude": 49.62185,
    "longitude": 6.12571,
    "street": "19 rue Guillaume Schneider",
    "zip": "L-2522",
    "city": "Luxembourg",
    "services": [
      [
        2275,
        "10:00 - 15:00"
      ]
    ],
    "days": "Mo-Fr",
    "openmensa": 992
  },
  "1230": {
    "reference": "LBVre",
    "name": "Belvaux, LBV Restaurant",
    "region": "Lycée Bel-Val",
    "active": true,
    "latitude": 49.50444,
    "longitude": 5.93481,
    "street": "100 Avenue du Blues",
    "zip": "L-4368",
    "city": "Belvaux (Luxembourg)",
    "services": [
      [
        2276,
        "11:00 - 14:00"
      ]
    ],
    "days": "Mo-Fr",
    "openmensa": 1019
  },
  "1231": {
    "reference": "LCDABre",
    "name": "Diekirch, LCD-AB Restaurant",
    "region": "Lycée classique de Diekirch Ancien Bâtiment",
    "active": true,
    "latitude": 49.86592,
    "longitude": 6.15624,
    "street": "32, avenue de la Gare",
    "zip": "L-9233",
    "city": "Diekirch (Luxembourg)",
    "services": [
      [
        2277,
        "10:00 - 15:00"
      ]
    ],
    "days": "Mo-Fr",
    "openmensa": 986
  },
  "1232": {
    "reference": "LCDBEre",
    "name": "Mersch, LCD-BE Restaurant",
    "region": "Lycée classique de Diekirch Bâtiment de Beringen",
    "active": true,
    "latitude": 49.75705,
    "longitude": 6.11164,
    "street": "46, rue de la Gare",
    "zip": "L-7590",
    "city": "Mersch (Luxembourg)",
    "services": [
      [
        2278,
        "10:00 - 15:00"
      ]
    ],
    "days": "Mo-Fr",
    "openmensa": 1075
  },
  "1233": {
    "reference": "LCDMEre",
    "name": "Mersch, LCD-ME Restaurant",
    "region": "Lycée classique de Diekirch Bâtiment de Mersch",
    "active": true,
    "latitude": 49.74909,
    "longitude": 6.10189,
    "street": "square Princesse Marie-Astrid",
    "zip": "L-7523",
    "city": "Mersch (Luxembourg)",
    "services": [
      [
        2279,
        "10:00 - 15:00"
      ]
    ],
    "days": "Mo-Fr",
    "openmensa": 1016
  },
  "1234": {
    "reference": "LCDNBre",
    "name": "Diekirch, LCD-NB Restaurant",
    "region": "Lycée classique de Diekirch Nouveau Bâtiment",
    "active": true,
    "latitude": 49.86448,
    "longitude": 6.16815,
    "street": "rue Joseph Merten",
    "zip": "L-9257",
    "city": "Diekirch (Luxembourg)",
    "services": [
      [
        2280,
        "10:00 - 15:00"
      ]
    ],
    "days": "Mo-Fr",
    "openmensa": 984
  },
  "1235": {
    "reference": "LCEgrand",
    "name": "Echternach, LCE Grand Réfectoire",
    "region": "Lycée Classique Echternach",
    "active": true,
    "latitude": 49.814,
    "longitude": 6.422,
    "street": "1 Rue du Pont",
    "zip": "L-6471",
    "city": "Echternach (Luxembourg)",
    "services": [
      [
        2281,
        "10:00 - 15:00"
      ]
    ],
    "days": "Mo-Fr",
    "openmensa": 958
  },
  "1237": {
    "reference": "LESCre",
    "name": "Clervaux, LESC Restaurant",
    "region": "Lycée Edward Steichen",
    "active": true,
    "latitude": 50.065615,
    "longitude": 6.023359,
    "street": "1 Rue Edward Steichen",
    "zip": "L-9707",
    "city": "Clervaux (Luxembourg)",
    "services": [
      [
        2283,
        "10:00 - 15:00"
      ]
    ],
    "days": "Mo-Fr",
    "openmensa": 1072
  },
  "1238": {
    "reference": "LGEre",
    "name": "Esch-sur-Alzette, LGE Restaurant",
    "region": "Lycée de Garçons Esch-sur-Alzette",
    "active": true,
    "latitude": 49.49955,
    "longitude": 5.98325,
    "street": "71, rue du Fossé",
    "zip": "L-4123",
    "city": "Esch-sur-Alzette (Luxembourg)",
    "services": [
      [
        2284,
        "10:00 - 15:00"
      ]
    ],
    "days": "Mo-Fr",
    "openmensa": 987
  },
  "1239": {
    "reference": "LGKre",
    "name": "Esch-sur-Alzette, LGK Restaurant",
    "region": "Lycée Guillaume Kroll",
    "active": true,
    "latitude": 49.51008,
    "longitude": 5.96424,
    "street": "32 Rue Henri Koch",
    "zip": "L-4354",
    "city": "Esch-sur-Alzette (Luxembourg)",
    "services": [
      [
        2285,
        "10:00 - 15:00"
      ]
    ],
    "days": "Mo-Fr",
    "openmensa": 970
  },
  "1269": {
    "reference": "LGLre",
    "name": "Luxembourg, LGL Restaurant",
    "region": "Lycée de Garçons",
    "active": true,
    "latitude": 49.62,
    "longitude": 6.1213,
    "street": "Place Auguste Laurent",
    "zip": "L-1921",
    "city": "Luxembourg",
    "services": [
      [
        2315,
        "10:00 - 15:00"
      ]
    ],
    "days": "Mo-Fr",
    "openmensa": 989
  },
  "1241": {
    "reference": "LHCEre",
    "name": "Esch-sur-Alzette, LHCE Restaurant",
    "region": "Lycée Hubert Clément",
    "active": true,
    "latitude": 49.5028,
    "longitude": 5.97738,
    "street": "2 rue Général Patton",
    "zip": "L-4277",
    "city": "Esch-sur-Alzette (Luxembourg)",
    "services": [
      [
        2287,
        "10:00 - 15:00"
      ]
    ],
    "days": "Mo-Fr",
    "openmensa": 991
  },
  "1242": {
    "reference": "LJBMre",
    "name": "Bertrange, LJBM - Restaurant",
    "region": "Lycée Josy Barthel Mamer",
    "active": true,
    "latitude": 49.621028,
    "longitude": 6.035486,
    "street": "2 Rue Gaston Thorn",
    "zip": "L-8268",
    "city": "Bertrange (Luxembourg)",
    "services": [
      [
        2288,
        "10:00 - 15:00"
      ]
    ],
    "days": "Mo-Fr",
    "openmensa": 954
  },
  "1243": {
    "reference": "LLJre",
    "name": "Junglinster, LLJ Restaurant",
    "region": "Lënster Lycée",
    "active": true,
    "latitude": 49.70002,
    "longitude": 6.24959,
    "street": "2, rue Victor Ferrant",
    "zip": "L-6122",
    "city": "Junglinster (Luxembourg)",
    "services": [
      [
        2289,
        "10:00 - 15:00"
      ]
    ],
    "days": "Mo-Fr",
    "openmensa": 1049
  },
  "1278": {
    "reference": "LMLca",
    "name": "Luxembourg, LML Cafétéria",
    "region": "Lycée Michel Lucius",
    "active": true,
    "latitude": 49.624553,
    "longitude": 6.114001,
    "street": "157 Avenue Pasteur",
    "zip": "L-2311",
    "city": "Luxembourg",
    "services": [
      [
        2324,
        "10:00 - 15:00"
      ]
    ],
    "days": "Mo-Fr",
    "openmensa": 1054
  },
  "1244": {
    "reference": "LMLweier",
    "name": "Limpertsberg, LML Restaurant Um Weier",
    "region": "Lycée Michel Lucius Université",
    "active": true,
    "latitude": 49.62393,
    "longitude": 6.11301,
    "street": "157 Avenue Pasteur",
    "zip": "L-2311",
    "city": "Limpertsberg (Luxembourg)",
    "phone": "+352 47 33 05 28",
    "services": [
      [
        2290,
        "10:00 - 15:00"
      ]
    ],
    "days": "Mo-Fr",
    "openmensa": 949
  },
  "1245": {
    "reference": "LMRLre",
    "name": "Luxembourg, LMRL Restaurant",
    "region": "Lycée Michel Rodange, Geesseknäppchen",
    "active": true,
    "latitude": 49.60191,
    "longitude": 6.110441,
    "street": "30 Boulevard Pierre Dupong",
    "zip": "L-1430",
    "city": "Luxembourg",
    "phone": "+352 260470",
    "services": [
      [
        2291,
        "10:00 - 15:00"
      ]
    ],
    "days": "Mo-Fr",
    "openmensa": 966
  },
  "1246": {
    "reference": "LNre",
    "name": "Wiltz, LN Restaurant",
    "region": "Lycée du Nord",
    "active": true,
    "latitude": 49.964007,
    "longitude": 5.92685,
    "street": "19, rue Général Patton",
    "zip": "L-9551",
    "city": "Wiltz (Luxembourg)",
    "services": [
      [
        2292,
        "10:00 - 15:00"
      ]
    ],
    "days": "Mo-Fr",
    "openmensa": 1001
  },
  "1268": {
    "reference": "LNBalliance",
    "name": "Dudelange, LNB Annexe Alliance",
    "region": "Lycée Technique Nic Biever",
    "active": true,
    "latitude": 49.472302,
    "longitude": 6.075457,
    "street": "Rue Reiteschkopp",
    "zip": "L-3526",
    "city": "Dudelange (Luxembourg)",
    "services": [
      [
        2314,
        "10:00 - 15:00"
      ]
    ],
    "days": "Mo-Fr",
    "openmensa": 1013
  },
  "1247": {
    "reference": "LNBre",
    "name": "Dudelange, LNB Restaurant",
    "region": "Lycée Nic-Biever",
    "active": true,
    "latitude": 49.483131,
    "longitude": 6.089133,
    "street": "28, rue du Parc",
    "zip": "L-3542",
    "city": "Dudelange (Luxembourg)",
    "services": [
      [
        2293,
        "10:00 - 15:00"
      ]
    ],
    "days": "Mo-Fr",
    "openmensa": 997
  },
  "1248": {
    "reference": "LRSLre",
    "name": "Luxembourg, LRSL Restaurant",
    "region": "Lycée Robert Schuman",
    "active": true,
    "latitude": 49.61882,
    "longitude": 6.12671,
    "street": "1, Boulevard Emmanuel Servais",
    "zip": "L-2535",
    "city": "Luxembourg",
    "services": [
      [
        2294,
        "10:00 - 15:00"
      ]
    ],
    "days": "Mo-Fr",
    "openmensa": 968
  },
  "1250": {
    "reference": "LTAre",
    "name": "Ettelbrück, LTA Restaurant",
    "region": "Lycée Technique Agricole",
    "active": true,
    "latitude": 49.851008,
    "longitude": 6.098693,
    "street": "72, av. Salentiny",
    "zip": "L-9080",
    "city": "Ettelbrück (Luxembourg)",
    "services": [
      [
        2296,
        "10:00 - 15:00"
      ]
    ],
    "days": "Mo-Fr",
    "openmensa": 999
  },
  "1251": {
    "reference": "LTBre",
    "name": "Luxembourg, LTB Restaurant",
    "region": "Lycée Technique de Bonnevoie",
    "active": true,
    "latitude": 49.590352,
    "longitude": 6.142873,
    "street": "119, rue du Cimetière",
    "zip": "L-1338",
    "city": "Luxembourg",
    "source": "https://www.ltb.lu/menu-de-la-semaine",
    "services": [
      [
        2297,
        "07:00 - 18:00"
      ]
    ],
    "days": "Mo-Fr",
    "openmensa": 1066
  },
  "1252": {
    "reference": "LTCKre",
    "name": "Luxembourg, LTCK Restaurant",
    "region": "Lycée Technique du Centre Kirchberg",
    "active": true,
    "latitude": 49.62561,
    "longitude": 6.1575,
    "street": "6 Rue Richard Coudenhove-Kalergi",
    "zip": "L-1359",
    "city": "Luxembourg",
    "services": [
      [
        2298,
        "10:00 - 15:00"
      ]
    ],
    "days": "Mo-Fr",
    "openmensa": 977
  },
  "1253": {
    "reference": "LTCPre",
    "name": "Luxembourg, LTCP Restaurant",
    "region": "Lycée Technique du Centre",
    "active": true,
    "latitude": 49.62445,
    "longitude": 6.11698,
    "street": "106 Avenue Pasteur",
    "zip": "L-2309",
    "city": "Luxembourg",
    "services": [
      [
        2299,
        "10:00 - 15:00"
      ]
    ],
    "days": "Mo-Fr",
    "openmensa": 976
  },
  "1254": {
    "reference": "LTETTre",
    "name": "Ettelbruck, LTETT Restaurant",
    "region": "Lycée Technique",
    "active": true,
    "latitude": 49.84999,
    "longitude": 6.09757,
    "street": "71 Avenue Lucien Salentiny",
    "zip": "L-9080",
    "city": "Ettelbruck (Luxembourg)",
    "services": [
      [
        2300,
        "10:00 - 15:00"
      ]
    ],
    "days": "Mo-Fr",
    "openmensa": 994
  },
  "1255": {
    "reference": "LTETTA",
    "name": "Ettelbruck Annexe Warken, LTETT-A Restaurant",
    "region": "Lycée Technique",
    "active": true,
    "latitude": 49.857956,
    "longitude": 6.086416,
    "street": "79 Rue de Welscheid",
    "zip": "L-9090",
    "city": "Ettelbruck (Luxembourg)",
    "services": [
      [
        2301,
        "10:00 - 15:00"
      ]
    ],
    "days": "Mo-Fr",
    "openmensa": 1003
  },
  "1256": {
    "reference": "LTLre",
    "name": "Esch-sur-Alzette, LTL Restaurant",
    "region": "Lycée Technique de Lallange",
    "active": true,
    "latitude": 49.511265,
    "longitude": 5.98396,
    "street": "Boulevard Hubert Clément",
    "zip": "L-4064",
    "city": "Esch-sur-Alzette (Luxembourg)",
    "services": [
      [
        2302,
        "10:00 - 15:00"
      ]
    ],
    "days": "Mo-Fr",
    "openmensa": 1005
  },
  "1257": {
    "reference": "LTMAre",
    "name": "Lamadelaine, LTMA Restaurant",
    "region": "Lycée Technique Mathias Adam",
    "active": true,
    "latitude": 49.55462,
    "longitude": 5.85782,
    "street": "Avenue de l'Europe",
    "zip": "L-4802",
    "city": "Lamadelaine (Luxembourg)",
    "services": [
      [
        2303,
        "10:00 - 15:00"
      ]
    ],
    "days": "Mo-Fr",
    "openmensa": 1014
  },
  "1258": {
    "reference": "LTMAjenker",
    "name": "Differdange, LTMA Restaurant Jenker",
    "region": "Lycée Technique Mathias Adam",
    "active": true,
    "latitude": 49.51741,
    "longitude": 5.90145,
    "street": "9 Rue Pierre Frieden",
    "zip": "L-4560",
    "city": "Differdange (Luxembourg)",
    "services": [
      [
        2304,
        "10:00 - 15:00"
      ]
    ],
    "days": "Mo-Fr",
    "openmensa": 983
  },
  "1259": {
    "reference": "LTPESre",
    "name": "Mersch, LTPES Restaurant",
    "region": "Lycée Technique pour professions éducatives et sociales",
    "active": true,
    "latitude": 49.756955,
    "longitude": 6.112354,
    "street": "45, rue de la Gare",
    "zip": "L-7590",
    "city": "Mersch (Luxembourg)",
    "services": [
      [
        2305,
        "10:00 - 15:00"
      ]
    ],
    "days": "Mo-Fr",
    "openmensa": 1081
  },
  "1260": {
    "reference": "LTPSbaSi",
    "name": "Luxembourg, LTPS Cafétéria Barblé Siège",
    "region": "Lycée Technique pour Professions de Santé",
    "active": true,
    "latitude": 49.61924,
    "longitude": 6.0994,
    "street": "27, rue Barblé",
    "zip": "L-1210",
    "city": "Luxembourg",
    "services": [
      [
        2306,
        "10:00 - 15:00"
      ]
    ],
    "days": "Mo-Fr",
    "openmensa": 973
  },
  "1261": {
    "reference": "LTPSbasch",
    "name": "Käerjeng, LTPS Cafétéria Bascharage",
    "region": "Lycée Technique pour Professions de Santé",
    "active": true,
    "latitude": 49.5679,
    "longitude": 5.90749,
    "street": "13, rue de l'Église",
    "zip": "L-4922",
    "city": "Käerjeng/Bascharage (Luxembourg)",
    "services": [
      [
        2307,
        "10:00 - 15:00"
      ]
    ],
    "days": "Mo-Fr",
    "openmensa": 1051
  },
  "1262": {
    "reference": "LTPSebruck",
    "name": "Ettelbruck, LTPS Restaurant Ettelbruck",
    "region": "Lycée Technique pour Professions de Santé",
    "active": true,
    "latitude": 49.852385,
    "longitude": 6.097723,
    "street": "1, Impasse av. Salentiny",
    "zip": "L-9080",
    "city": "Ettelbruck (Luxembourg)",
    "services": [
      [
        2308,
        "10:00 - 15:00"
      ]
    ],
    "days": "Mo-Fr",
    "openmensa": 974
  },
  "1263": {
    "reference": "LTPSmerc",
    "name": "Luxembourg, LTPS Restaurant Mercator",
    "region": "Lycée Technique pour Professions de Santé",
    "active": true,
    "latitude": 49.61622,
    "longitude": 6.10128,
    "street": "112, route d'Arlon",
    "zip": "L-1150",
    "city": "Luxembourg",
    "services": [
      [
        2309,
        "10:00 - 15:00"
      ]
    ],
    "days": "Mo-Fr",
    "openmensa": 972
  },
  "1264": {
    "reference": "MLGre",
    "name": "Grevenmacher, MLG Restaurant",
    "region": "Maacher Lycée",
    "active": true,
    "latitude": 49.683121,
    "longitude": 6.442776,
    "street": "18 Rue de Muenschecker",
    "zip": "L-6760",
    "city": "Grevenmacher (Luxembourg)",
    "services": [
      [
        2310,
        "10:00 - 15:00"
      ]
    ],
    "days": "Mo-Fr",
    "openmensa": 995
  },
  "1265": {
    "reference": "NOSLre",
    "name": "Diekirch, NOSL Restaurant",
    "region": "Nordstadlycée",
    "active": true,
    "latitude": 49.86372,
    "longitude": 6.163,
    "street": "1-7, rue Sauerwiss",
    "zip": "L-9278",
    "city": "Diekirch (Luxembourg)",
    "services": [
      [
        2311,
        "10:00 - 15:00"
      ]
    ],
    "days": "Mo-Fr",
    "openmensa": 950
  },
  "1266": {
    "reference": "SCvisEleve",
    "name": "Differdange, Science Center, Visiteur élève",
    "region": "",
    "active": true,
    "latitude": 49.522226,
    "longitude": 5.89442,
    "street": "50, rue Emile Mark",
    "zip": "L-4620",
    "city": "Differdange (Luxembourg)",
    "services": [
      [
        2312,
        "10:00 - 15:00"
      ]
    ],
    "days": "Mo-Fr",
    "openmensa": 1068
  },
  "1267": {
    "reference": "INSre",
    "name": "Luxembourg, Sportlycée INS Restaurant",
    "region": "Institut National des Sports",
    "active": true,
    "latitude": 49.610802,
    "longitude": 6.144677,
    "street": "66, rue de Trèves",
    "zip": "L-2630",
    "city": "Luxembourg",
    "services": [
      [
        2313,
        "10:00 - 15:00"
      ]
    ],
    "days": "Mo-Fr",
    "openmensa": 1010
  }
}