{
    "137":
    {
        "reference": "studierendenhaus",
        "name": "Hamburg, Mensa Studierendenhaus ðŸ†•",
        "address": "Von-Melle-Park 2, 20146 Hamburg",
        "city": "Hamburg",
        "latitude": 53.56582784975418,
        "longitude": 9.98623796776435,
        "phone": "040 419 022 10",
        "times": "Mo - Fr 11.00 - 14.30 Uhr"
    },
    "142":
    {
        "reference": "blattwerk",
        "name": "Hamburg, Mensa Blattwerk ðŸ†•",
        "address": "Von-Melle-Park 5, 20146 Hamburg",
        "city": "Hamburg",
        "latitude": 53.56569254653744,
        "longitude": 9.985144470295682,
        "phone": "040 450 395 81",
        "times": "Mo - Fr 11.00 - 15.30 Uhr"
    },
    "143":
    {
        "reference": "schlueters",
        "name": "Hamburg, SchlÃ¼ters (Pizza & More) ðŸ†•",
        "address": "Von-Melle-Park 2, 20146 Hamburg",
        "city": "Hamburg",
        "latitude": 53.56552846795741,
        "longitude": 9.985717663894418,
        "phone": "040 419 021 71",
        "times": "Mo - Do 11.30 - 19.00 Uhr\nFr 11.30 - 18.00 Uhr"
    },
    "148":
    {
        "reference": "dellarte",
        "name": "Hamburg, CafÃ© dell'Arte ðŸ†•",
        "address": "Edmund-Siemers-Allee 1, 20146 Hamburg",
        "city": "Hamburg",
        "latitude": 53.56310773378465,
        "longitude": 9.987293056842452,
        "phone": "040 413 082 63",
        "times": "Mo - Do 09.00 - 16.00 Uhr\nFr 09.00 - 15.00 Uhr"
    },
    "151":
    {
        "reference": "geomatikum",
        "name": "Hamburg, Mensa Geomatikum ðŸ†•",
        "address": "BundesstraÃŸe 55, 20146 Hamburg",
        "city": "Hamburg",
        "latitude": 53.568007259686446,
        "longitude": 9.974302303477435,
        "phone": "040 450 060 5",
        "times": "Mo - Do 11.15 - 14.30 Uhr\nFr 11.15 - 14.00 Uhr"
    },
    "154":
    {
        "reference": "philturm",
        "name": "Hamburg, Mensa Philturm (Von-Melle-Park)",
        "address": "Von-Melle-Park 6, 20146 Hamburg",
        "city": "Hamburg",
        "latitude": 53.567371868252,
        "longitude": 9.9852301550588,
        "phone": "040 419 025 3500",
        "times": "Mo - Fr 11.15 - 17.00 Uhr"
    },
    "156":
    {
        "reference": "botanischer",
        "name": "Hamburg, Mensa Botanischer Garten ðŸ†•",
        "address": "OhnhorststraÃŸe 18, 22609 Hamburg",
        "city": "Hamburg",
        "latitude": 53.55977684380725,
        "longitude": 9.858833547409567,
        "times": "Mo - Fr 11.30 - 14.00 Uhr"
    },
    "158":
    {
        "reference": "tuharburg",
        "name": "Hamburg, Mensa Harburg TU ðŸ†•",
        "address": "DenickestraÃŸe 22, 21073 Hamburg",
        "city": "Hamburg",
        "latitude": 53.460904766677686,
        "longitude": 9.969999357644323,
        "times": "Mo - Fr 11.00 - 14.30 Uhr"
    },
    "161":
    {
        "reference": "stellingen",
        "name": "Hamburg, Mensa Stellingen ðŸ†•",
        "address": "Vogt-KÃ¶lln-Str. 30, 22527 Hamburg",
        "city": "Hamburg",
        "latitude": 53.59969348492193,
        "longitude": 9.93218886966631,
        "times": "Mo - Fr 11.15 - 14.30 Uhr"
    },
    "162":
    {
        "reference": "bucerius",
        "name": "Hamburg, Mensa Bucerius Law School ðŸ†•",
        "address": "JungiusstraÃŸe 6, 20355 Hamburg",
        "city": "Hamburg",
        "latitude": 53.55996339448136,
        "longitude": 9.983844080096475,
        "phone": "040 349 944 33",
        "times": "Mo - Fr 11.30 - 14.00 Uhr"
    },
    "164":
    {
        "reference": "finkenau",
        "name": "Hamburg, Mensa Finkenau ðŸ†•",
        "address": "Finkenau 35, 22081 Hamburg",
        "city": "Hamburg",
        "latitude": 53.56922992486325,
        "longitude": 10.035082714973111,
        "phone": "040 226 914 41",
        "times": "Mo - Fr 11.30 - 14.30 Uhr"
    },
    "166":
    {
        "reference": "hcu",
        "name": "Hamburg, Mensa HCU HafenCity ðŸ†•",
        "address": "Henning-Voscherau-Platz 1, 20457 Hamburg",
        "city": "Hamburg",
        "latitude": 53.54016651328558,
        "longitude": 10.00543987413177,
        "times": "Mo - Fr 11.00 - 14.00 Uhr"
    },
    "168":
    {
        "reference": "bergedorf",
        "name": "Hamburg, Mensa Bergedorf ðŸ†•",
        "address": "Ulmenliet 20, 21033 Hamburg",
        "city": "Hamburg",
        "latitude": 53.49374650458989,
        "longitude": 10.20019387253075,
        "times": "Mo - Do 11.15 - 14.30 Uhr\nFr 11.15 - 14.00 Uhr"
    },
    "170":
    {
        "reference": "berlinertor",
        "name": "Hamburg, Mensa Berliner Tor ðŸ†•",
        "address": "Berliner Tor 7, 20099 Hamburg",
        "city": "Hamburg",
        "latitude": 53.55726368456093,
        "longitude": 10.023176184773213,
        "phone": "040 247 994",
        "times": "Mo - Do 11.15 - 14.30 Uhr\nFr 11.15 - 14.00 Uhr"
    },
    "175":
    {
        "reference": "jungiuscafe",
        "name": "Hamburg, CafÃ© JungiusstraÃŸe ðŸ†•",
        "address": "JungiusstraÃŸe 9, 20355 Hamburg",
        "city": "Hamburg",
        "latitude": 53.55840023647369,
        "longitude": 9.981449334227788,
        "times": "Mo - Do 11.15 - 14.30 Uhr\nFr 11.15 - 14.00 Uhr"
    },
    "177":
    {
        "reference": "ccfel",
        "name": "Hamburg, CafÃ© CFEL ðŸ†•",
        "address": "NotkestraÃŸe 85, 22607 Hamburg",
        "city": "Hamburg",
        "latitude": 53.57928659175288,
        "longitude": 9.884850725556937,
        "phone": "040 668 771 30",
        "times": "Mo - Fr 08.00 - 15.00 Uhr"
    },
    "178":
    {
        "reference": "mittelwegcafe",
        "name": "Hamburg, CafÃ© am Mittelweg ðŸ†•",
        "address": "Mittelweg 177, 20148 Hamburg",
        "city": "Hamburg",
        "latitude": 53.56469304109216,
        "longitude": 9.994940622925085,
        "times": "Mo - Fr 11.00 - 14.30 Uhr"
    },
    "179":
    {
        "reference": "foodtruck",
        "name": "Hamburg, Campus Food Truck (Von-Melle-Park) ðŸ†•",
        "address": "Von-Melle-Park 2, 20146 Hamburg",
        "city": "Hamburg",
        "latitude": 53.56541570865111,
        "longitude": 9.985744825842717
    },
    "383":
    {
        "reference": "tuzessp",
        "name": "Hamburg, CafÃ© ZessP TU ðŸ†•",
        "address": "Am Schwarzenberg-Campus 2, 21073 Hamburg",
        "city": "Hamburg",
        "latitude": 53.4630894390393,
        "longitude": 9.970585479242574,
        "times": "Mo - Fr 08.00 - 17.00 Uhr"
    }
}
