{
  "schloss":
  {
      "name": "Mannheim, Mensa am Schloss",
      "address": "Bismarckstraße 10, 68159 ",
      "city": "Mannheim",
      "latitude": 49.48484,
      "longitude": 8.45952,
      "phone": "+49 621 49072333",
      "times": "Mo - Do 11.30 - 14.15 Uhr\nFr 11.30 - 14.00 Uhr",
      "source": "https://www.stw-ma.de/men%C3%BCplan_schlossmensa.html",
      "url": "https://www.stw-ma.de/menüplan_schlossmensa-date-{year}%25252d{month}%25252d{day}-view-week.html"
  },
  "greenes":
  {
      "name": "Mannheim, greenes²",
      "address": "Bismarckstraße 10, 68159 Mannheim",
      "city": "Mannheim",
      "latitude": 49.48449192318391,
      "longitude": 8.458971639745846,
      "phone": "+49 621 49072333",
      "times": "Mo-Do 10.00-15.00 Uhr\nFr 10.00-14.00 Uhr",
      "source": "https://www.stw-ma.de/Essen+_+Trinken/Speisepl%C3%A4ne/greenes%C2%B2.html",
      "url": "https://www.stw-ma.de/Essen+_+Trinken/Speisepl%C3%A4ne/greenes%C2%B2-date-2022%25252d11%25252d02-view-week.html"
  },
  "wagon":
  {
      "name": "Mannheim, Mensa Wagon",
      "address": "Bismarckstraße 42, 68161 Mannheim",
      "city": "Mannheim",
      "latitude": 49.4830472,
      "longitude": 8.4640314,
      "times": "Mo - Fr 08.00 - 14.30 Uhr",
      "source": "https://www.stw-ma.de/Essen+_+Trinken/Speisepl%C3%A4ne/MensaWagon.html",
      "url": "https://www.stw-ma.de/Essen+_+Trinken/Speisepläne/MensaWagon-date-{year}%25252d{month}%25252d{day}-view-week.html"
  },
  "hochschule":
  {
      "name": "Mannheim, Mensa Hochschule Mannheim",
      "address": "Bau J, Paul-Wittsack-Straße 10, 68163 Mannheim",
      "city": "Mannheim",
      "latitude": 49.46992,
      "longitude": 8.48243,
      "times": "Mo - Do 11.15 - 14.00 Uhr\nFr 11.15 - 13.45 Uhr",
      "source": "https://www.stw-ma.de/Essen+_+Trinken/Men%C3%BCpl%C3%A4ne/Hochschule+Mannheim.html",
      "url": "https://www.stw-ma.de/Essen+_+Trinken/Speisepl%C3%A4ne/Hochschule+Mannheim-date-{year}%25252d{month}%25252d{day}-view-week.html"
  },
  "musikhochschule":
  {
      "name": "Mannheim, Cafeteria Musikhochschule",
      "address": "N7 17, 68161 Mannheim",
      "city": "Mannheim",
      "latitude": 49.483681,
      "longitude": 8.471395,
      "times": "Mo - Fr 11.30 - 13.30 Uhr",
      "source": "https://www.stw-ma.de/Essen+_+Trinken/Men%C3%BCpl%C3%A4ne/Cafeteria+Musikhochschule.html",
      "url": "https://www.stw-ma.de/Essen+_+Trinken/Speisepl%C3%A4ne/Cafeteria+Musikhochschule-date-{year}%25252d{month}%25252d{day}-view-week.html"
  },
  "metropol":
  {
      "name": "Mannheim, Mensaria Metropol",
      "address": "Hans-Thoma-Straße 51, 68163 Mannheim",
      "city": "Mannheim",
      "latitude": 49.472954,
      "longitude": 8.535328,
      "times": "Mo - Fr 11.20 - 14.00 Uhr",
      "source": "https://www.stw-ma.de/speiseplan_mensaria_metropol.html",
      "url": "https://www.stw-ma.de/Essen+_+Trinken/Speisepl%C3%A4ne/Mensaria+Metropol-date-{year}%25252d{month}%25252d{day}-view-week.html"
  },
  "wohlgelegen":
  {
      "name": "Mannheim, Mensaria Wohlgelegen",
      "address": "Käfertaler Straße 258, 68167 Mannheim",
      "city": "Mannheim",
      "latitude": 49.50073,
      "longitude": 8.49943,
      "times": "Mo - Fr 11.30 - 13.30 Uhr",
      "source": "https://www.stw-ma.de/Essen+_+Trinken/Men%C3%BCpl%C3%A4ne/Mensaria+Wohlgelegen.html",
      "url": "https://www.stw-ma.de/Essen+_+Trinken/Speisepl%C3%A4ne/Mensaria+Wohlgelegen-date-{year}%25252d{month}%25252d{day}-view-week.html"
  },
  "eo":
  {
      "name": "Mannheim, EO (Schloss Ehrenhof)",
      "address": "EO Cafeteria, Im Schloss Mannheim, 68159 Mannheim",
      "city": "Mannheim",
      "latitude": 49.483207,
      "longitude": 8.4629098,
      "phone": "+49 621 49072630",
      "times": "Mo - Fr 07.45 - 20.00 Uhr\nSa 10.00 - 16.00 Uhr",
      "source": "https://www.stw-ma.de/men%C3%BCplan_eo.html",
      "url": "https://www.stw-ma.de/Essen+_+Trinken/Speisepl%C3%A4ne/eo-date-{year}%25252d{month}%25252d{day}-view-week.html"
  },
  "horizonte":
  {
      "name": "Mannheim, Cafeteria Horizonte DHBW",
      "address": "Gebäude C, 4.OG, Coblitzallee 9, 68163 Mannheim",
      "city": "Mannheim",
      "latitude": 49.47474,
      "longitude": 8.53469,
      "times": "Mo - Fr 09.15 - 14.30 Uhr",
      "source": "https://www.stw-ma.de/horizonte.html",
      "url": "https://www.stw-ma.de/Essen+_+Trinken/Speisepl%C3%A4ne/Horizonte-date-{year}%25252d{month}%25252d{day}-view-week.html"
  }
}