{
  "mensen": [
    {
      "locId": "4",
      "json": "mensa_musikhochschule.json",
      "xml": "mitteMusikhochschule",
      "name": "Stuttgart Mitte, Mensa Musikhochschule",
      "strasse": "Urbanstra\u00dfe 25",
      "plz": "70182",
      "ort": "Stuttgart",
      "latitude": 48.7784,
      "longitude": 9.1864,
      "phone": "+49 711 685 83913",
      "infokurz": "Mo - Fr 11.15 - 14.15 Uhr"
    },
    {
      "locId": "7",
      "json": "mensa_kunstakademie.json",
      "xml": "nordKunstakademie",
      "name": "Stuttgart Nord, Mensa Kunstakademie",
      "strasse": "Am Wei\u00dfenhof 1",
      "plz": "70191",
      "ort": "Stuttgart",
      "latitude": 48.8005536,
      "longitude": 9.1748127,
      "phone": "+49 711 685 83913",
      "infokurz": "Mo - Fr 11.15 - 14.15 Uhr"
    },
    {
      "locId": "3",
      "json": "mensa_stuttgart-mitte.json",
      "xml": "mitteMensa1Holzgartenstrasse",
      "name": "Stuttgart Mitte, Mensa 1 (Holzgartenstra\u00dfe)",
      "strasse": "Holzgartenstra\u00dfe 11",
      "plz": "70174",
      "ort": "Stuttgart",
      "latitude": 48.78099,
      "longitude": 9.16966,
      "phone": "+49 711 685 83913",
      "infokurz": "Mo - Fr 11.15 - 14.15 Uhr"
    },
    {
      "locId": "2",
      "json": "mensa_stuttgart-vaihingen.json",
      "xml": "vaihingenMensa2",
      "name": "Stuttgart Vaihingen, Mensa 2",
      "strasse": "Pfaffenwaldring 45",
      "plz": "70569",
      "ort": "Stuttgart",
      "latitude": 48.746359,
      "longitude": 9.1030635,
      "phone": "+49 711 685 62972",
      "infokurz": "Mo - Fr 11.15 - 14.15 Uhr"
    },
    {
      "locId": "6",
      "json": "mensa_flandernstrasse.json",
      "xml": "esslingen1Flandernstrasse",
      "name": "Esslingen, Mensa Flandernstra\u00dfe",
      "strasse": "Flandernstra\u00dfe 107",
      "plz": "73732",
      "ort": "Esslingen",
      "latitude": 48.74459,
      "longitude": 9.32388,
      "phone": "+49 711 937828 27",
      "infokurz": "Mo - Fr 11.15 - 14.15 Uhr"
    },
    {
      "locId": "1",
      "json": "mensa_ludwigsburg.json",
      "xml": "ludwigsburg",
      "name": "Ludwigsburg, Mensa Ludwigsburg",
      "strasse": "Reuteallee 46",
      "plz": "71634",
      "ort": "Ludwigsburg",
      "latitude": 48.9089367,
      "longitude": 9.183871,
      "phone": "+49 711 685 83913",
      "infokurz": "Mo - Fr 11.15 - 14.15 Uhr"
    },
    {
      "locId": "9",
      "json": "mensa_esslingen_stadtmitte.json",
      "xml": "esslingen2Mitte",
      "name": "Esslingen, Mensa Stadtmitte - Kanalstra\u00dfe",
      "strasse": "Kanalstra\u00dfe 27",
      "plz": "73728",
      "ort": "Esslingen",
      "latitude": 48.7386942,
      "longitude": 9.3100086,
      "phone": "+49 711 5509446",
      "infokurz": "Mo - Fr 11.15 - 14.15 Uhr"
    },
    {
      "locId": "12",
      "json": "mensa_am_campus_horb.json",
      "xml": "horb",
      "name": "Horb, DHBW Stuttgart Campus Horb",
      "strasse": "Florianstra\u00dfe 15",
      "plz": "72160",
      "ort": "Horb",
      "latitude": 48.4454792,
      "longitude": 8.6968763,
      "phone": "+49 7451 521279",
      "infokurz": "Mo - Fr 11.15 - 14.15 Uhr"
    }
,
    {
      "locId": "16",
      "json": "mensa_central.json",
      "xml": "central",
      "name": "Stuttgart Mitte, Mensa Central",
      "strasse": "Ossietzkystra\u00dfe 3",
      "plz": "70174",
      "ort": "Stuttgart",
      "latitude": 48.7844048,
      "longitude": 9.1769449,
      "phone": "+49 711 68583923",
      "infokurz": "Mo - Fr 11.15 - 14.00 Uhr"
    }
  ]
}
