{
  "mensen": [
    {
      "xml": "mitteMusikhochschule",
      "name": "Stuttgart Mitte, Mensa Musikhochschule",
      "strasse": "Urbanstra\u00DFe 25",
      "plz": "70182",
      "ort": "Stuttgart",
      "latitude": 48.77840,
      "longitude": 9.18640,
      "phone": "+49 711 685 83913",
      "infokurz": "Mo - Fr 11.15 - 14.15 Uhr"
    },
    
    
    {
      "xml": "nordKunstakademie",
      "name": "Stuttgart Nord, Mensa Kunstakademie",
      "strasse": "Am Wei\u00DFenhof 1",
      "plz": "70191",
      "ort": "Stuttgart",
      "latitude": 48.8005536, 
      "longitude": 9.1748127,
      "phone": "+49 711 685 83913",
      "infokurz": "Mo - Fr 11.15 - 14.15 Uhr"
    },
    
    {
      "xml": "mitteMensa1Holzgartenstrasse",
      "name": "Stuttgart Mitte, Mensa 1 (Holzgartenstra\u00DFe)",
      "strasse": "Holzgartenstra\u00DFe 11",
      "plz": "70174",
      "ort": "Stuttgart",
      "latitude": 48.78099, 
      "longitude": 9.16966,
      "phone": "+49 711 685 83913",
      "infokurz": "Mo - Fr 11.15 - 14.15 Uhr"
    },
    
    {
      "xml": "vaihingenMensa2",
      "name": "Stuttgart Vaihingen, Mensa 2",
      "strasse": "Pfaffenwaldring 45",
      "plz": "70569",
      "ort": "Stuttgart",
      "latitude": 48.7463590, 
      "longitude": 9.1030635, 
      "phone": "+49 711 685 62972",
      "infokurz": "Mo - Fr 11.15 - 14.15 Uhr"
    },
    
    {
      "xml": "esslingen1Flandernstrasse",
      "name": "Esslingen, Mensa Flandernstra\u00DFe",
      "strasse": "Flandernstra\u00DFe 107",
      "plz": "73732",
      "ort": "Esslingen",
      "latitude": 48.74459, 
      "longitude": 9.32388, 
      "phone": "+49 711 937828 27",
      "infokurz": "Mo - Fr 11.15 - 14.15 Uhr"
    },
    
    {
      "xml": "ludwigsburg",
      "name": "Ludwigsburg, Mensa Ludwigsburg",
      "strasse": "Reuteallee 46",
      "plz": "71634",
      "ort": "Ludwigsburg",
      "latitude": 48.9089367, 
      "longitude": 9.1838710, 
      "phone": "+49 711 685 83913",
      "infokurz": "Mo - Fr 11.15 - 14.15 Uhr"
    },
    
    
    {
      "xml": "esslingen2Mitte",
      "name": "Esslingen, Mensa Stadtmitte - Kanalstra\u00DFe",
      "strasse": "Kanalstra\u00DFe 27",
      "plz": "73728",
      "ort": "Esslingen",
      "latitude": 48.7386942,
      "longitude": 9.3100086, 
      "phone": "+49 711 5509446",
      "infokurz": "Mo - Fr 11.15 - 14.15 Uhr",
      "kategorien" : ["Vorspeise", "Hauptgericht 1", "Hauptgericht 2", "Bio-Gericht"],
      "COMMENT" : "http://www.hs-esslingen.de/de/hochschule/service/mensa/speiseplan-stadtmitte.html"
    },
    
    
    {
      "xml": "goeppingen",
      "name": "G\u00F6ppingen, Cafeteria Bau 4 EG",
      "strasse": "Robert-Bosch-Stra\u00DFe 2",
      "plz": "73037",
      "ort": "G\u00F6ppingen",
      "latitude": 48.69687,
      "longitude": 9.656, 
      "phone": "+49 711 5509446",
      "infokurz": "Mo - Fr 12.00 - 13.30 Uhr",
      "kategorien" : ["Hauptgericht 1", "Bio-Gericht"],
      "COMMENT" : "https://www.studierendenwerk-stuttgart.de/cafeteria/cafeteria-bau-4-eg-goeppingen"
    }
    
    
    
  ]
}